{
"type": "FeatureCollection",
"crs": { "type": "name", "properties": { "name": "urn:ogc:def:crs:OGC:1.3:CRS84" } },
"features": [
{ "type": "Feature", "properties": { "INVENTARI_CODI": "01-001", "INVENTARI_NOM": "porta principal Zoo (Wellington)", "INVENTARI_TIPUS": "Font de beure", "INVENTARI_CARRER": "C WELLINGTON", "INVENTARI_NUMERO_CARRER": "21.I", "INVENTARI_COORDENADA_X": 432267.789, "INVENTARI_COORDENADA_Y": 4582117.338000001 }, "geometry": { "type": "Point", "coordinates": [ 2.189875, 41.387735 ] } },
{ "type": "Feature", "properties": { "INVENTARI_CODI": "01-004", "INVENTARI_NOM": "Sant Carles", "INVENTARI_TIPUS": "Font de beure", "INVENTARI_CARRER": "C COMTE DE SANTA CLARA", "INVENTARI_NUMERO_CARRER": "11", "INVENTARI_COORDENADA_X": 432182.782, "INVENTARI_COORDENADA_Y": 4581164.507 }, "geometry": { "type": "Point", "coordinates": [ 2.188965, 41.379146 ] } },
{ "type": "Feature", "properties": { "INVENTARI_CODI": "01-005", "INVENTARI_NOM": "C. Carbonell", "INVENTARI_TIPUS": "Font de beure", "INVENTARI_CARRER": "C CARBONELL", "INVENTARI_NUMERO_CARRER": "9", "INVENTARI_COORDENADA_X": 432076.454, "INVENTARI_COORDENADA_Y": 4581430.619 }, "geometry": { "type": "Point", "coordinates": [ 2.187664, 41.381533 ] } },
{ "type": "Feature", "properties": { "INVENTARI_CODI": "01-006", "INVENTARI_NOM": "Balboa", "INVENTARI_TIPUS": "Font de beure", "INVENTARI_CARRER": "C BALBOA", "INVENTARI_NUMERO_CARRER": "9", "INVENTARI_COORDENADA_X": 432109.474, "INVENTARI_COORDENADA_Y": 4581499.838000001 }, "geometry": { "type": "Point", "coordinates": [ 2.188051, 41.38216 ] } },
{ "type": "Feature", "properties": { "INVENTARI_CODI": "01-007", "INVENTARI_NOM": "Ocata", "INVENTARI_TIPUS": "Font de beure", "INVENTARI_CARRER": "C MARQUESA", "INVENTARI_NUMERO_CARRER": "13", "INVENTARI_COORDENADA_X": 431886.355, "INVENTARI_COORDENADA_Y": 4581649.64 }, "geometry": { "type": "Point", "coordinates": [ 2.185366, 41.38349 ] } },
{ "type": "Feature", "properties": { "INVENTARI_CODI": "01-008", "INVENTARI_NOM": "costat llac", "INVENTARI_TIPUS": "Font de beure", "INVENTARI_CARRER": "PARC CIUTADELLA", "INVENTARI_NUMERO_CARRER": "20.I", "INVENTARI_COORDENADA_X": 432013.03, "INVENTARI_COORDENADA_Y": 4582261.85 }, "geometry": { "type": "Point", "coordinates": [ 2.186812, 41.389015 ] } },
{ "type": "Feature", "properties": { "INVENTARI_CODI": "01-009", "INVENTARI_NOM": "davant cascada", "INVENTARI_TIPUS": "Font de beure", "INVENTARI_CARRER": "PG JOAQUIM RENART", "INVENTARI_NUMERO_CARRER": "20-10", "INVENTARI_COORDENADA_X": 431939.55, "INVENTARI_COORDENADA_Y": 4582301.911 }, "geometry": { "type": "Point", "coordinates": [ 2.185929, 41.389369 ] } },
{ "type": "Feature", "properties": { "INVENTARI_CODI": "01-011", "INVENTARI_NOM": "entre Hivernacle i museu", "INVENTARI_TIPUS": "Font de beure", "INVENTARI_CARRER": "PG PICASSO", "INVENTARI_NUMERO_CARRER": "12.I", "INVENTARI_COORDENADA_X": 431788.328, "INVENTARI_COORDENADA_Y": 4582098.182 }, "geometry": { "type": "Point", "coordinates": [ 2.184143, 41.387522 ] } },
{ "type": "Feature", "properties": { "INVENTARI_CODI": "01-013", "INVENTARI_NOM": "Magdalenes", "INVENTARI_TIPUS": "Font de beure", "INVENTARI_CARRER": "C CAPELLANS", "INVENTARI_NUMERO_CARRER": "20-18", "INVENTARI_COORDENADA_X": 430985.476, "INVENTARI_COORDENADA_Y": 4581870.748 }, "geometry": { "type": "Point", "coordinates": [ 2.174567, 41.385405 ] } },
{ "type": "Feature", "properties": { "INVENTARI_CODI": "01-015", "INVENTARI_NOM": "biblioteca", "INVENTARI_TIPUS": "Font de beure", "INVENTARI_CARRER": "PAS INSTITUT ESCOLA", "INVENTARI_NUMERO_CARRER": "16.I", "INVENTARI_COORDENADA_X": 432031.819, "INVENTARI_COORDENADA_Y": 4582125.03 }, "geometry": { "type": "Point", "coordinates": [ 2.187052, 41.387784 ] } },
{ "type": "Feature", "properties": { "INVENTARI_CODI": "01-016", "INVENTARI_NOM": " ", "INVENTARI_TIPUS": "Font de beure", "INVENTARI_CARRER": "PL DUC DE MEDINACELI", "INVENTARI_NUMERO_CARRER": "1-1.B", "INVENTARI_COORDENADA_X": 431322.6, "INVENTARI_COORDENADA_Y": 4581092.984 }, "geometry": { "type": "Point", "coordinates": [ 2.178687, 41.378428 ] } },
{ "type": "Feature", "properties": { "INVENTARI_CODI": "01-017", "INVENTARI_NOM": "Santa Madrona", "INVENTARI_TIPUS": "Font de beure", "INVENTARI_CARRER": "C MONTSERRAT", "INVENTARI_NUMERO_CARRER": "12-14", "INVENTARI_COORDENADA_X": 431045.678, "INVENTARI_COORDENADA_Y": 4580914.326 }, "geometry": { "type": "Point", "coordinates": [ 2.175396, 41.376796 ] } },
{ "type": "Feature", "properties": { "INVENTARI_CODI": "01-018", "INVENTARI_NOM": "Hotel Rivoli", "INVENTARI_TIPUS": "Font de beure", "INVENTARI_CARRER": "C LA RAMBLA", "INVENTARI_NUMERO_CARRER": "128", "INVENTARI_COORDENADA_X": 430691.524, "INVENTARI_COORDENADA_Y": 4581732.96 }, "geometry": { "type": "Point", "coordinates": [ 2.171068, 41.384138 ] } },
{ "type": "Feature", "properties": { "INVENTARI_CODI": "01-019", "INVENTARI_NOM": "magatzems Sepu", "INVENTARI_TIPUS": "Font de beure", "INVENTARI_CARRER": "C LA RAMBLA", "INVENTARI_NUMERO_CARRER": "120", "INVENTARI_COORDENADA_X": 430722.414, "INVENTARI_COORDENADA_Y": 4581667.029 }, "geometry": { "type": "Point", "coordinates": [ 2.171444, 41.383547 ] } },
{ "type": "Feature", "properties": { "INVENTARI_CODI": "01-022", "INVENTARI_NOM": "Salvador Seguí", "INVENTARI_TIPUS": "Font de beure", "INVENTARI_CARRER": "PL SALVADOR SEGUÍ", "INVENTARI_NUMERO_CARRER": "16-17", "INVENTARI_COORDENADA_X": 430670.45, "INVENTARI_COORDENADA_Y": 4581151.939 }, "geometry": { "type": "Point", "coordinates": [ 2.170882, 41.378903 ] } },
{ "type": "Feature", "properties": { "INVENTARI_CODI": "01-023", "INVENTARI_NOM": "Peu de la Creu", "INVENTARI_TIPUS": "Font de beure", "INVENTARI_CARRER": "C PEU DE LA CREU", "INVENTARI_NUMERO_CARRER": "32", "INVENTARI_COORDENADA_X": 430285.16, "INVENTARI_COORDENADA_Y": 4581338.602 }, "geometry": { "type": "Point", "coordinates": [ 2.166253, 41.380551 ] } },
{ "type": "Feature", "properties": { "INVENTARI_CODI": "01-025", "INVENTARI_NOM": "Drassanes", "INVENTARI_TIPUS": "Font de beure", "INVENTARI_CARRER": "C ARC DEL TEATRE", "INVENTARI_NUMERO_CARRER": "24-28", "INVENTARI_COORDENADA_X": 430907.108, "INVENTARI_COORDENADA_Y": 4580915.077 }, "geometry": { "type": "Point", "coordinates": [ 2.173739, 41.376791 ] } },
{ "type": "Feature", "properties": { "INVENTARI_CODI": "01-026", "INVENTARI_NOM": "Dames", "INVENTARI_TIPUS": "Font de beure", "INVENTARI_CARRER": "C DAMES", "INVENTARI_NUMERO_CARRER": "6", "INVENTARI_COORDENADA_X": 431701.245, "INVENTARI_COORDENADA_Y": 4581669.512 }, "geometry": { "type": "Point", "coordinates": [ 2.18315, 41.383653 ] } },
{ "type": "Feature", "properties": { "INVENTARI_CODI": "01-027", "INVENTARI_NOM": "Mestrança \/ Meer", "INVENTARI_TIPUS": "Font de beure", "INVENTARI_CARRER": "C MEER", "INVENTARI_NUMERO_CARRER": "18", "INVENTARI_COORDENADA_X": 432261.071, "INVENTARI_COORDENADA_Y": 4581075.567 }, "geometry": { "type": "Point", "coordinates": [ 2.189911, 41.378351 ] } },
{ "type": "Feature", "properties": { "INVENTARI_CODI": "01-031", "INVENTARI_NOM": " ", "INVENTARI_TIPUS": "Font de beure", "INVENTARI_CARRER": "PG PICASSO", "INVENTARI_NUMERO_CARRER": "44-42", "INVENTARI_COORDENADA_X": 431889.437, "INVENTARI_COORDENADA_Y": 4581898.551 }, "geometry": { "type": "Point", "coordinates": [ 2.185375, 41.385732 ] } },
{ "type": "Feature", "properties": { "INVENTARI_CODI": "01-032", "INVENTARI_NOM": "Fusteria", "INVENTARI_TIPUS": "Font de beure", "INVENTARI_CARRER": "PL ANTONIO LOPEZ", "INVENTARI_NUMERO_CARRER": "1", "INVENTARI_COORDENADA_X": 431550.293, "INVENTARI_COORDENADA_Y": 4581410.663 }, "geometry": { "type": "Point", "coordinates": [ 2.181374, 41.381309 ] } },
{ "type": "Feature", "properties": { "INVENTARI_CODI": "01-033", "INVENTARI_NOM": "Comerç", "INVENTARI_TIPUS": "Font de beure", "INVENTARI_CARRER": "PLTA COMERÇ", "INVENTARI_NUMERO_CARRER": "4", "INVENTARI_COORDENADA_X": 431544.06, "INVENTARI_COORDENADA_Y": 4582340.134 }, "geometry": { "type": "Point", "coordinates": [ 2.181194, 41.38968 ] } },
{ "type": "Feature", "properties": { "INVENTARI_CODI": "01-034", "INVENTARI_NOM": "Pons i Clerch, Pl", "INVENTARI_TIPUS": "Font de beure", "INVENTARI_CARRER": "PL PONS I CLERCH", "INVENTARI_NUMERO_CARRER": "3", "INVENTARI_COORDENADA_X": 431596.508, "INVENTARI_COORDENADA_Y": 4582019.893 }, "geometry": { "type": "Point", "coordinates": [ 2.181858, 41.3868 ] } },
{ "type": "Feature", "properties": { "INVENTARI_CODI": "01-037", "INVENTARI_NOM": "Reina Amalia", "INVENTARI_TIPUS": "Font de beure", "INVENTARI_CARRER": "C REINA AMALIA", "INVENTARI_NUMERO_CARRER": "33", "INVENTARI_COORDENADA_X": 430370.257, "INVENTARI_COORDENADA_Y": 4580907.551 }, "geometry": { "type": "Point", "coordinates": [ 2.16732, 41.376676 ] } },
{ "type": "Feature", "properties": { "INVENTARI_CODI": "01-038", "INVENTARI_NOM": "Rda. Sant Pau", "INVENTARI_TIPUS": "Font de beure", "INVENTARI_CARRER": "C LLEIALTAT", "INVENTARI_NUMERO_CARRER": "24-16", "INVENTARI_COORDENADA_X": 430289.117, "INVENTARI_COORDENADA_Y": 4580885.191 }, "geometry": { "type": "Point", "coordinates": [ 2.166353, 41.376468 ] } },
{ "type": "Feature", "properties": { "INVENTARI_CODI": "01-039", "INVENTARI_NOM": "Paral·lel", "INVENTARI_TIPUS": "Font de beure", "INVENTARI_CARRER": "C ARC DEL TEATRE", "INVENTARI_NUMERO_CARRER": "64-62", "INVENTARI_COORDENADA_X": 430821.577, "INVENTARI_COORDENADA_Y": 4580719.407 }, "geometry": { "type": "Point", "coordinates": [ 2.172739, 41.375021 ] } },
{ "type": "Feature", "properties": { "INVENTARI_CODI": "01-040", "INVENTARI_NOM": "davant Parlament", "INVENTARI_TIPUS": "Font de beure", "INVENTARI_CARRER": "PAS INSTITUT ESCOLA", "INVENTARI_NUMERO_CARRER": "18.I", "INVENTARI_COORDENADA_X": 432165.249, "INVENTARI_COORDENADA_Y": 4582095.429 }, "geometry": { "type": "Point", "coordinates": [ 2.188651, 41.387529 ] } },
{ "type": "Feature", "properties": { "INVENTARI_CODI": "01-044", "INVENTARI_NOM": "C. Judici", "INVENTARI_TIPUS": "Font de beure", "INVENTARI_CARRER": "C JUDICI", "INVENTARI_NUMERO_CARRER": "1", "INVENTARI_COORDENADA_X": 432177.98, "INVENTARI_COORDENADA_Y": 4580863.957 }, "geometry": { "type": "Point", "coordinates": [ 2.188941, 41.376438 ] } },
{ "type": "Feature", "properties": { "INVENTARI_CODI": "01-045", "INVENTARI_NOM": "Trafalgar", "INVENTARI_TIPUS": "Font de beure", "INVENTARI_CARRER": "C MENDEZ NUÑEZ", "INVENTARI_NUMERO_CARRER": "15", "INVENTARI_COORDENADA_X": 431232.99, "INVENTARI_COORDENADA_Y": 4582373.226 }, "geometry": { "type": "Point", "coordinates": [ 2.17747, 41.389952 ] } },
{ "type": "Feature", "properties": { "INVENTARI_CODI": "01-046", "INVENTARI_NOM": "Tapineria", "INVENTARI_TIPUS": "Font de beure", "INVENTARI_CARRER": "PL RAMON BERENGUER EL GRAN", "INVENTARI_NUMERO_CARRER": "2", "INVENTARI_COORDENADA_X": 431227.715, "INVENTARI_COORDENADA_Y": 4581770.336 }, "geometry": { "type": "Point", "coordinates": [ 2.177476, 41.384521 ] } },
{ "type": "Feature", "properties": { "INVENTARI_CODI": "01-051", "INVENTARI_NOM": "Roviralta \/ font Canaletes", "INVENTARI_TIPUS": "Font de beure", "INVENTARI_CARRER": "C LA RAMBLA", "INVENTARI_NUMERO_CARRER": "131", "INVENTARI_COORDENADA_X": 430617.925, "INVENTARI_COORDENADA_Y": 4581846.47 }, "geometry": { "type": "Point", "coordinates": [ 2.170174, 41.385154 ] } },
{ "type": "Feature", "properties": { "INVENTARI_CODI": "01-052", "INVENTARI_NOM": "Santa Anna", "INVENTARI_TIPUS": "Font de beure", "INVENTARI_CARRER": "C SANTA ANNA", "INVENTARI_NUMERO_CARRER": "39", "INVENTARI_COORDENADA_X": 430793.186, "INVENTARI_COORDENADA_Y": 4581950.119 }, "geometry": { "type": "Point", "coordinates": [ 2.172259, 41.386103 ] } },
{ "type": "Feature", "properties": { "INVENTARI_CODI": "01-053", "INVENTARI_NOM": "centre plaça", "INVENTARI_TIPUS": "Font de beure", "INVENTARI_CARRER": "PL SANT AGUSTI VELL", "INVENTARI_NUMERO_CARRER": "5", "INVENTARI_COORDENADA_X": 431487.948, "INVENTARI_COORDENADA_Y": 4582144.084 }, "geometry": { "type": "Point", "coordinates": [ 2.180545, 41.387909 ] } },
{ "type": "Feature", "properties": { "INVENTARI_CODI": "01-054", "INVENTARI_NOM": "centre plaça", "INVENTARI_TIPUS": "Font de beure", "INVENTARI_CARRER": "PL BARCELONETA", "INVENTARI_NUMERO_CARRER": "4", "INVENTARI_COORDENADA_X": 432113.452, "INVENTARI_COORDENADA_Y": 4581231.608 }, "geometry": { "type": "Point", "coordinates": [ 2.188128, 41.379744 ] } },
{ "type": "Feature", "properties": { "INVENTARI_CODI": "01-055", "INVENTARI_NOM": "Hospital", "INVENTARI_TIPUS": "Font de beure", "INVENTARI_CARRER": "PL PEDRO", "INVENTARI_NUMERO_CARRER": "9", "INVENTARI_COORDENADA_X": 430264.469, "INVENTARI_COORDENADA_Y": 4581222.502 }, "geometry": { "type": "Point", "coordinates": [ 2.166019, 41.379504 ] } },
{ "type": "Feature", "properties": { "INVENTARI_CODI": "01-057", "INVENTARI_NOM": "centre plaça", "INVENTARI_TIPUS": "Font de beure", "INVENTARI_CARRER": "PL SANT PERE", "INVENTARI_NUMERO_CARRER": "15-16", "INVENTARI_COORDENADA_X": 431357.63, "INVENTARI_COORDENADA_Y": 4582323.465 }, "geometry": { "type": "Point", "coordinates": [ 2.178967, 41.389514 ] } },
{ "type": "Feature", "properties": { "INVENTARI_CODI": "01-058", "INVENTARI_NOM": "davant nº6 C\/ Baix de Sant Pere", "INVENTARI_TIPUS": "Font de beure", "INVENTARI_CARRER": "C BASSES DE SANT PERE", "INVENTARI_NUMERO_CARRER": "8", "INVENTARI_COORDENADA_X": 431450.539, "INVENTARI_COORDENADA_Y": 4582207.405 }, "geometry": { "type": "Point", "coordinates": [ 2.180091, 41.388477 ] } },
{ "type": "Feature", "properties": { "INVENTARI_CODI": "01-061", "INVENTARI_NOM": "Estafeta Correos", "INVENTARI_TIPUS": "Font de beure", "INVENTARI_CARRER": "PL BONSUCCES", "INVENTARI_NUMERO_CARRER": "2.B", "INVENTARI_COORDENADA_X": 430570.994, "INVENTARI_COORDENADA_Y": 4581709.96 }, "geometry": { "type": "Point", "coordinates": [ 2.169629, 41.383921 ] } },
{ "type": "Feature", "properties": { "INVENTARI_CODI": "01-062", "INVENTARI_NOM": "Paral·lel", "INVENTARI_TIPUS": "Font de beure", "INVENTARI_CARRER": "C NOU DE LA RAMBLA", "INVENTARI_NUMERO_CARRER": "108", "INVENTARI_COORDENADA_X": 430618.486, "INVENTARI_COORDENADA_Y": 4580735.269 }, "geometry": { "type": "Point", "coordinates": [ 2.170308, 41.375146 ] } },
{ "type": "Feature", "properties": { "INVENTARI_CODI": "01-063", "INVENTARI_NOM": "Museu de Cera", "INVENTARI_TIPUS": "Font de beure", "INVENTARI_CARRER": "PTGE BANCA", "INVENTARI_NUMERO_CARRER": "4", "INVENTARI_COORDENADA_X": 431157.829, "INVENTARI_COORDENADA_Y": 4580947.155 }, "geometry": { "type": "Point", "coordinates": [ 2.176733, 41.377101 ] } },
{ "type": "Feature", "properties": { "INVENTARI_CODI": "01-064", "INVENTARI_NOM": "Reial, Pl", "INVENTARI_TIPUS": "Font de beure", "INVENTARI_CARRER": "C LA RAMBLA", "INVENTARI_NUMERO_CARRER": "54", "INVENTARI_COORDENADA_X": 430965.111, "INVENTARI_COORDENADA_Y": 4581266.237 }, "geometry": { "type": "Point", "coordinates": [ 2.174393, 41.379958 ] } },
{ "type": "Feature", "properties": { "INVENTARI_CODI": "01-065", "INVENTARI_NOM": "centre plaça", "INVENTARI_TIPUS": "Font de beure", "INVENTARI_CARRER": "PL TRAGINERS", "INVENTARI_NUMERO_CARRER": "3", "INVENTARI_COORDENADA_X": 431422.393, "INVENTARI_COORDENADA_Y": 4581508.264 }, "geometry": { "type": "Point", "coordinates": [ 2.179833, 41.382177 ] } },
{ "type": "Feature", "properties": { "INVENTARI_CODI": "01-066", "INVENTARI_NOM": "Ciutat", "INVENTARI_TIPUS": "Font de beure", "INVENTARI_CARRER": "PL REGOMIR", "INVENTARI_NUMERO_CARRER": "1", "INVENTARI_COORDENADA_X": 431325.273, "INVENTARI_COORDENADA_Y": 4581452.374 }, "geometry": { "type": "Point", "coordinates": [ 2.178678, 41.381666 ] } },
{ "type": "Feature", "properties": { "INVENTARI_CODI": "01-067", "INVENTARI_NOM": " ", "INVENTARI_TIPUS": "Font de beure", "INVENTARI_CARRER": "C BOT", "INVENTARI_NUMERO_CARRER": "23-25", "INVENTARI_COORDENADA_X": 430764.724, "INVENTARI_COORDENADA_Y": 4581772.539 }, "geometry": { "type": "Point", "coordinates": [ 2.171938, 41.384501 ] } },
{ "type": "Feature", "properties": { "INVENTARI_CODI": "01-068", "INVENTARI_NOM": "Flassaders", "INVENTARI_TIPUS": "Font de beure", "INVENTARI_CARRER": "PG BORN", "INVENTARI_NUMERO_CARRER": "19", "INVENTARI_COORDENADA_X": 431673.576, "INVENTARI_COORDENADA_Y": 4581796.442 }, "geometry": { "type": "Point", "coordinates": [ 2.182805, 41.384794 ] } },
{ "type": "Feature", "properties": { "INVENTARI_CODI": "01-070", "INVENTARI_NOM": "Carders \/ Boira", "INVENTARI_TIPUS": "Font de beure", "INVENTARI_CARRER": "PL SANT AGUSTI VELL", "INVENTARI_NUMERO_CARRER": "17", "INVENTARI_COORDENADA_X": 431492.988, "INVENTARI_COORDENADA_Y": 4582113.784 }, "geometry": { "type": "Point", "coordinates": [ 2.180609, 41.387637 ] } },
{ "type": "Feature", "properties": { "INVENTARI_CODI": "01-074", "INVENTARI_NOM": "Valldonzella", "INVENTARI_TIPUS": "Font de beure", "INVENTARI_CARRER": "C JOAQUIN COSTA", "INVENTARI_NUMERO_CARRER": "33.B", "INVENTARI_COORDENADA_X": 430178.813, "INVENTARI_COORDENADA_Y": 4581641.513 }, "geometry": { "type": "Point", "coordinates": [ 2.164947, 41.38327 ] } },
{ "type": "Feature", "properties": { "INVENTARI_CODI": "01-075", "INVENTARI_NOM": "Ferlandina", "INVENTARI_TIPUS": "Font de beure", "INVENTARI_CARRER": "C LLEO", "INVENTARI_NUMERO_CARRER": "1.B", "INVENTARI_COORDENADA_X": 430195.251, "INVENTARI_COORDENADA_Y": 4581481.993 }, "geometry": { "type": "Point", "coordinates": [ 2.165162, 41.381835 ] } },
{ "type": "Feature", "properties": { "INVENTARI_CODI": "01-077", "INVENTARI_NOM": "Moll", "INVENTARI_TIPUS": "Font de beure", "INVENTARI_CARRER": "PLA MIQUEL TARRADELL", "INVENTARI_NUMERO_CARRER": "50-51", "INVENTARI_COORDENADA_X": 432095.97, "INVENTARI_COORDENADA_Y": 4580953.278 }, "geometry": { "type": "Point", "coordinates": [ 2.187951, 41.377236 ] } },
{ "type": "Feature", "properties": { "INVENTARI_CODI": "01-078", "INVENTARI_NOM": "Egipciaques", "INVENTARI_TIPUS": "Font de beure", "INVENTARI_CARRER": "C CARME", "INVENTARI_NUMERO_CARRER": "51", "INVENTARI_COORDENADA_X": 430489.401, "INVENTARI_COORDENADA_Y": 4581425.241 }, "geometry": { "type": "Point", "coordinates": [ 2.168686, 41.381349 ] } },
{ "type": "Feature", "properties": { "INVENTARI_CODI": "01-079", "INVENTARI_NOM": "Comerç", "INVENTARI_TIPUS": "Font de beure", "INVENTARI_CARRER": "PL CANONGE COLOM", "INVENTARI_NUMERO_CARRER": "61", "INVENTARI_COORDENADA_X": 430663.401, "INVENTARI_COORDENADA_Y": 4581340.199 }, "geometry": { "type": "Point", "coordinates": [ 2.170776, 41.380598 ] } },
{ "type": "Feature", "properties": { "INVENTARI_CODI": "01-082", "INVENTARI_NOM": " ", "INVENTARI_TIPUS": "Font de beure", "INVENTARI_CARRER": "C NOU DE LA RAMBLA", "INVENTARI_NUMERO_CARRER": "48", "INVENTARI_COORDENADA_X": 430819.129, "INVENTARI_COORDENADA_Y": 4580995.017 }, "geometry": { "type": "Point", "coordinates": [ 2.172678, 41.377503 ] } },
{ "type": "Feature", "properties": { "INVENTARI_CODI": "01-083", "INVENTARI_NOM": "Penedides \/ Santa Margarida", "INVENTARI_TIPUS": "Font de beure", "INVENTARI_CARRER": "C UNIO", "INVENTARI_NUMERO_CARRER": "32", "INVENTARI_COORDENADA_X": 430838.4, "INVENTARI_COORDENADA_Y": 4581173.058 }, "geometry": { "type": "Point", "coordinates": [ 2.172888, 41.379108 ] } },
{ "type": "Feature", "properties": { "INVENTARI_CODI": "01-084", "INVENTARI_NOM": " ", "INVENTARI_TIPUS": "Font de beure", "INVENTARI_CARRER": "C VERDAGUER I CALLIS", "INVENTARI_NUMERO_CARRER": "12", "INVENTARI_COORDENADA_X": 431103.317, "INVENTARI_COORDENADA_Y": 4582055.297 }, "geometry": { "type": "Point", "coordinates": [ 2.175955, 41.387077 ] } },
{ "type": "Feature", "properties": { "INVENTARI_CODI": "01-085", "INVENTARI_NOM": " ", "INVENTARI_TIPUS": "Font de beure", "INVENTARI_CARRER": "C MESTRES CASALS MARTORELL", "INVENTARI_NUMERO_CARRER": "27", "INVENTARI_COORDENADA_X": 431277.258, "INVENTARI_COORDENADA_Y": 4582099.366 }, "geometry": { "type": "Point", "coordinates": [ 2.178031, 41.387489 ] } },
{ "type": "Feature", "properties": { "INVENTARI_CODI": "01-087", "INVENTARI_NOM": "La Rambla, 80", "INVENTARI_TIPUS": "Font de beure", "INVENTARI_CARRER": "C LA RAMBLA", "INVENTARI_NUMERO_CARRER": "3", "INVENTARI_COORDENADA_X": 430892.152, "INVENTARI_COORDENADA_Y": 4581404.118 }, "geometry": { "type": "Point", "coordinates": [ 2.173504, 41.381194 ] } },
{ "type": "Feature", "properties": { "INVENTARI_CODI": "01-089", "INVENTARI_NOM": "Av. Portal de lÀngel", "INVENTARI_TIPUS": "Font de beure", "INVENTARI_CARRER": "C CUCURULLA", "INVENTARI_NUMERO_CARRER": "6", "INVENTARI_COORDENADA_X": 430953.475, "INVENTARI_COORDENADA_Y": 4581773.568 }, "geometry": { "type": "Point", "coordinates": [ 2.174196, 41.384527 ] } },
{ "type": "Feature", "properties": { "INVENTARI_CODI": "01-091", "INVENTARI_NOM": "Lledo \/ Sant Just", "INVENTARI_TIPUS": "Font de beure", "INVENTARI_CARRER": "PL SANT JUST", "INVENTARI_NUMERO_CARRER": "4.B", "INVENTARI_COORDENADA_X": 431310.154, "INVENTARI_COORDENADA_Y": 4581588.205 }, "geometry": { "type": "Point", "coordinates": [ 2.178482, 41.382888 ] } },
{ "type": "Feature", "properties": { "INVENTARI_CODI": "01-092", "INVENTARI_NOM": "Boixadors", "INVENTARI_TIPUS": "Font de beure", "INVENTARI_CARRER": "PL SANTA MARIA", "INVENTARI_NUMERO_CARRER": "16", "INVENTARI_COORDENADA_X": 431569.905, "INVENTARI_COORDENADA_Y": 4581650.583 }, "geometry": { "type": "Point", "coordinates": [ 2.181581, 41.383472 ] } },
{ "type": "Feature", "properties": { "INVENTARI_CODI": "01-093", "INVENTARI_NOM": "Floristes Rambles", "INVENTARI_TIPUS": "Font de beure", "INVENTARI_CARRER": "C FLORISTES DE LA RAMBLA", "INVENTARI_NUMERO_CARRER": "8.B", "INVENTARI_COORDENADA_X": 430609.452, "INVENTARI_COORDENADA_Y": 4581444.33 }, "geometry": { "type": "Point", "coordinates": [ 2.170119, 41.381532 ] } },
{ "type": "Feature", "properties": { "INVENTARI_CODI": "01-094", "INVENTARI_NOM": " ", "INVENTARI_TIPUS": "Font de beure", "INVENTARI_CARRER": "PL SANT MIQUEL", "INVENTARI_NUMERO_CARRER": "2", "INVENTARI_COORDENADA_X": 431170.423, "INVENTARI_COORDENADA_Y": 4581493.066 }, "geometry": { "type": "Point", "coordinates": [ 2.176822, 41.382019 ] } },
{ "type": "Feature", "properties": { "INVENTARI_CODI": "01-095", "INVENTARI_NOM": "Moll", "INVENTARI_TIPUS": "Font de beure", "INVENTARI_CARRER": "PG JOAN DE BORBO COMTE DE BARCELONA", "INVENTARI_NUMERO_CARRER": "40-41", "INVENTARI_COORDENADA_X": 432072.191, "INVENTARI_COORDENADA_Y": 4581053.038 }, "geometry": { "type": "Point", "coordinates": [ 2.187655, 41.378132 ] } },
{ "type": "Feature", "properties": { "INVENTARI_CODI": "01-096", "INVENTARI_NOM": "Central", "INVENTARI_TIPUS": "Font de beure", "INVENTARI_CARRER": "PG JOAN DE BORBO COMTE DE BARCELONA", "INVENTARI_NUMERO_CARRER": "2-2.A", "INVENTARI_COORDENADA_X": 431980.434, "INVENTARI_COORDENADA_Y": 4581408.749 }, "geometry": { "type": "Point", "coordinates": [ 2.186518, 41.381328 ] } },
{ "type": "Feature", "properties": { "INVENTARI_CODI": "01-097", "INVENTARI_NOM": "Moll", "INVENTARI_TIPUS": "Font de beure", "INVENTARI_CARRER": "PG JOAN DE BORBO COMTE DE BARCELONA", "INVENTARI_NUMERO_CARRER": "21", "INVENTARI_COORDENADA_X": 432024.512, "INVENTARI_COORDENADA_Y": 4581216.579 }, "geometry": { "type": "Point", "coordinates": [ 2.187067, 41.379601 ] } },
{ "type": "Feature", "properties": { "INVENTARI_CODI": "01-099", "INVENTARI_NOM": "Interior Parc Zoologic", "INVENTARI_TIPUS": "Font de beure", "INVENTARI_CARRER": "PG CIRCUMVAL·LACIÓ", "INVENTARI_NUMERO_CARRER": "42-2", "INVENTARI_COORDENADA_X": 432217.478, "INVENTARI_COORDENADA_Y": 4581901.268 }, "geometry": { "type": "Point", "coordinates": [ 2.189297, 41.385784 ] } },
{ "type": "Feature", "properties": { "INVENTARI_CODI": "01-100", "INVENTARI_NOM": "Interior Parc Zoologic", "INVENTARI_TIPUS": "Font de beure", "INVENTARI_CARRER": "PG CIRCUMVAL·LACIÓ", "INVENTARI_NUMERO_CARRER": "42-2", "INVENTARI_COORDENADA_X": 432094.327, "INVENTARI_COORDENADA_Y": 4581898.359 }, "geometry": { "type": "Point", "coordinates": [ 2.187825, 41.385748 ] } },
{ "type": "Feature", "properties": { "INVENTARI_CODI": "01-104", "INVENTARI_NOM": "La Rambla", "INVENTARI_TIPUS": "Font de beure", "INVENTARI_CARRER": "C PORTAFERRISA", "INVENTARI_NUMERO_CARRER": "2", "INVENTARI_COORDENADA_X": 430760.563, "INVENTARI_COORDENADA_Y": 4581610.649 }, "geometry": { "type": "Point", "coordinates": [ 2.171907, 41.383043 ] } },
{ "type": "Feature", "properties": { "INVENTARI_CODI": "01-109", "INVENTARI_NOM": "L'Abat Safont", "INVENTARI_TIPUS": "Font de beure", "INVENTARI_CARRER": "C ABAT SAFONT", "INVENTARI_NUMERO_CARRER": "4-2", "INVENTARI_COORDENADA_X": 430573.956, "INVENTARI_COORDENADA_Y": 4580761.069 }, "geometry": { "type": "Point", "coordinates": [ 2.169773, 41.375375 ] } },
{ "type": "Feature", "properties": { "INVENTARI_CODI": "01-110", "INVENTARI_NOM": "Almirall Aixada", "INVENTARI_TIPUS": "Font de beure", "INVENTARI_CARRER": "C PESCADORS", "INVENTARI_NUMERO_CARRER": "53-55", "INVENTARI_COORDENADA_X": 432221.771, "INVENTARI_COORDENADA_Y": 4580976.937 }, "geometry": { "type": "Point", "coordinates": [ 2.189452, 41.377459 ] } },
{ "type": "Feature", "properties": { "INVENTARI_CODI": "01-118", "INVENTARI_NOM": " ", "INVENTARI_TIPUS": "Font de beure", "INVENTARI_CARRER": "PG LLUIS COMPANYS", "INVENTARI_NUMERO_CARRER": "12", "INVENTARI_COORDENADA_X": 431659.22, "INVENTARI_COORDENADA_Y": 4582369.333 }, "geometry": { "type": "Point", "coordinates": [ 2.182568, 41.389953 ] } },
{ "type": "Feature", "properties": { "INVENTARI_CODI": "01-121", "INVENTARI_NOM": "Pelai", "INVENTARI_TIPUS": "Font de beure", "INVENTARI_CARRER": "C PELAI", "INVENTARI_NUMERO_CARRER": "9-10", "INVENTARI_COORDENADA_X": 430170.145, "INVENTARI_COORDENADA_Y": 4581927.574 }, "geometry": { "type": "Point", "coordinates": [ 2.16481, 41.385846 ] } },
{ "type": "Feature", "properties": { "INVENTARI_CODI": "01-124", "INVENTARI_NOM": " ", "INVENTARI_TIPUS": "Font de beure", "INVENTARI_CARRER": "PL PALAU", "INVENTARI_NUMERO_CARRER": "15", "INVENTARI_COORDENADA_X": 431773.255, "INVENTARI_COORDENADA_Y": 4581579.981 }, "geometry": { "type": "Point", "coordinates": [ 2.184021, 41.382853 ] } },
{ "type": "Feature", "properties": { "INVENTARI_CODI": "01-125", "INVENTARI_NOM": "frente Pl. Pau Vila", "INVENTARI_TIPUS": "Font de beure", "INVENTARI_CARRER": "MDOR PORT VELL", "INVENTARI_NUMERO_CARRER": "3", "INVENTARI_COORDENADA_X": 431693.072, "INVENTARI_COORDENADA_Y": 4581285.321000001 }, "geometry": { "type": "Point", "coordinates": [ 2.183095, 41.380192 ] } },
{ "type": "Feature", "properties": { "INVENTARI_CODI": "01-126", "INVENTARI_NOM": "Hospital del Mar", "INVENTARI_TIPUS": "Font de beure", "INVENTARI_CARRER": "PG MARITIM DE LA BARCELONETA", "INVENTARI_NUMERO_CARRER": "23-31", "INVENTARI_COORDENADA_X": 432657.196, "INVENTARI_COORDENADA_Y": 4581563.354 }, "geometry": { "type": "Point", "coordinates": [ 2.194594, 41.382778 ] } },
{ "type": "Feature", "properties": { "INVENTARI_CODI": "01-127", "INVENTARI_NOM": " ", "INVENTARI_TIPUS": "Font de beure", "INVENTARI_CARRER": "PL PES DE LA PALLA", "INVENTARI_NUMERO_CARRER": "1", "INVENTARI_COORDENADA_X": 430077.341, "INVENTARI_COORDENADA_Y": 4581460.254 }, "geometry": { "type": "Point", "coordinates": [ 2.163754, 41.381629 ] } },
{ "type": "Feature", "properties": { "INVENTARI_CODI": "01-128", "INVENTARI_NOM": "Hospital del Mar", "INVENTARI_TIPUS": "Font de beure", "INVENTARI_CARRER": "PG MARITIM DE LA BARCELONETA", "INVENTARI_NUMERO_CARRER": "23-31", "INVENTARI_COORDENADA_X": 432709.187, "INVENTARI_COORDENADA_Y": 4581672.974 }, "geometry": { "type": "Point", "coordinates": [ 2.195203, 41.383769 ] } },
{ "type": "Feature", "properties": { "INVENTARI_CODI": "01-130", "INVENTARI_NOM": "Museu Marítim", "INVENTARI_TIPUS": "Font de beure", "INVENTARI_CARRER": "PL PORTAL DE LA PAU", "INVENTARI_NUMERO_CARRER": "1", "INVENTARI_COORDENADA_X": 431176.127, "INVENTARI_COORDENADA_Y": 4580754.924 }, "geometry": { "type": "Point", "coordinates": [ 2.176974, 41.375371 ] } },
{ "type": "Feature", "properties": { "INVENTARI_CODI": "01-132", "INVENTARI_NOM": "al centre de Mari Santpere", "INVENTARI_TIPUS": "Font de beure", "INVENTARI_CARRER": "C PORTAL DE SANTA MADRONA", "INVENTARI_NUMERO_CARRER": "4-2", "INVENTARI_COORDENADA_X": 431123.889, "INVENTARI_COORDENADA_Y": 4580956.855 }, "geometry": { "type": "Point", "coordinates": [ 2.176326, 41.377185 ] } },
{ "type": "Feature", "properties": { "INVENTARI_CODI": "01-134", "INVENTARI_NOM": "Sant Pau", "INVENTARI_TIPUS": "Font de beure", "INVENTARI_CARRER": "RBLA RAVAL", "INVENTARI_NUMERO_CARRER": "43", "INVENTARI_COORDENADA_X": 430613.009, "INVENTARI_COORDENADA_Y": 4581061.619 }, "geometry": { "type": "Point", "coordinates": [ 2.170205, 41.378085 ] } },
{ "type": "Feature", "properties": { "INVENTARI_CODI": "01-135", "INVENTARI_NOM": "Hospital", "INVENTARI_TIPUS": "Font de beure", "INVENTARI_CARRER": "RBLA RAVAL", "INVENTARI_NUMERO_CARRER": "4.B-2", "INVENTARI_COORDENADA_X": 430461.39, "INVENTARI_COORDENADA_Y": 4581206.771 }, "geometry": { "type": "Point", "coordinates": [ 2.168376, 41.379379 ] } },
{ "type": "Feature", "properties": { "INVENTARI_CODI": "01-136", "INVENTARI_NOM": " ", "INVENTARI_TIPUS": "Font de beure", "INVENTARI_CARRER": "C AGUSTI DURAN I SANPERE", "INVENTARI_NUMERO_CARRER": "58-50", "INVENTARI_COORDENADA_X": 430453.411, "INVENTARI_COORDENADA_Y": 4581422.871 }, "geometry": { "type": "Point", "coordinates": [ 2.168256, 41.381325 ] } },
{ "type": "Feature", "properties": { "INVENTARI_CODI": "01-137", "INVENTARI_NOM": "dins del parc Zoologic", "INVENTARI_TIPUS": "Font de beure", "INVENTARI_CARRER": "C WELLINGTON", "INVENTARI_NUMERO_CARRER": "40-18", "INVENTARI_COORDENADA_X": 432269.95, "INVENTARI_COORDENADA_Y": 4582180.988 }, "geometry": { "type": "Point", "coordinates": [ 2.189894, 41.388308 ] } },
{ "type": "Feature", "properties": { "INVENTARI_CODI": "01-138", "INVENTARI_NOM": "dins del parc Zoologic", "INVENTARI_TIPUS": "Font de beure", "INVENTARI_CARRER": "C WELLINGTON", "INVENTARI_NUMERO_CARRER": "20.I", "INVENTARI_COORDENADA_X": 432180.7, "INVENTARI_COORDENADA_Y": 4582262.719 }, "geometry": { "type": "Point", "coordinates": [ 2.188817, 41.389037 ] } },
{ "type": "Feature", "properties": { "INVENTARI_CODI": "01-139", "INVENTARI_NOM": "dins del parc Zoologic", "INVENTARI_TIPUS": "Font de beure", "INVENTARI_CARRER": "C WELLINGTON", "INVENTARI_NUMERO_CARRER": "1.B", "INVENTARI_COORDENADA_X": 432129.241, "INVENTARI_COORDENADA_Y": 4582383.95 }, "geometry": { "type": "Point", "coordinates": [ 2.188188, 41.390124 ] } },
{ "type": "Feature", "properties": { "INVENTARI_CODI": "01-141", "INVENTARI_NOM": " ", "INVENTARI_TIPUS": "Font de beure", "INVENTARI_CARRER": "PG MARITIM DE LA BARCELONETA", "INVENTARI_NUMERO_CARRER": "9", "INVENTARI_COORDENADA_X": 432501.323, "INVENTARI_COORDENADA_Y": 4581236.385 }, "geometry": { "type": "Point", "coordinates": [ 2.192766, 41.37982 ] } },
{ "type": "Feature", "properties": { "INVENTARI_CODI": "01-142", "INVENTARI_NOM": "Andrea Doria", "INVENTARI_TIPUS": "Font de beure", "INVENTARI_CARRER": "PG MARITIM DE LA BARCELONETA", "INVENTARI_NUMERO_CARRER": "11-13", "INVENTARI_COORDENADA_X": 432559.504, "INVENTARI_COORDENADA_Y": 4581357.905 }, "geometry": { "type": "Point", "coordinates": [ 2.193448, 41.380919 ] } },
{ "type": "Feature", "properties": { "INVENTARI_CODI": "01-143", "INVENTARI_NOM": "Próxim a Iglesia Castrense", "INVENTARI_TIPUS": "Font de beure", "INVENTARI_CARRER": "PAS INSTITUT ESCOLA", "INVENTARI_NUMERO_CARRER": "18.I", "INVENTARI_COORDENADA_X": 432061.438, "INVENTARI_COORDENADA_Y": 4582029.74 }, "geometry": { "type": "Point", "coordinates": [ 2.187417, 41.386928 ] } },
{ "type": "Feature", "properties": { "INVENTARI_CODI": "01-144", "INVENTARI_NOM": "C. Fonollar", "INVENTARI_TIPUS": "Font de beure", "INVENTARI_CARRER": "C FONOLLAR", "INVENTARI_NUMERO_CARRER": "2", "INVENTARI_COORDENADA_X": 431443.027, "INVENTARI_COORDENADA_Y": 4582005.004 }, "geometry": { "type": "Point", "coordinates": [ 2.180024, 41.386653 ] } },
{ "type": "Feature", "properties": { "INVENTARI_CODI": "01-145", "INVENTARI_NOM": " ", "INVENTARI_TIPUS": "Font de beure", "INVENTARI_CARRER": "C COLOMINES", "INVENTARI_NUMERO_CARRER": "4", "INVENTARI_COORDENADA_X": 431350.576, "INVENTARI_COORDENADA_Y": 4581897.605 }, "geometry": { "type": "Point", "coordinates": [ 2.17893, 41.385678 ] } },
{ "type": "Feature", "properties": { "INVENTARI_CODI": "01-147", "INVENTARI_NOM": " ", "INVENTARI_TIPUS": "Font de beure", "INVENTARI_CARRER": "C WELLINGTON", "INVENTARI_NUMERO_CARRER": "1", "INVENTARI_COORDENADA_X": 432349.569, "INVENTARI_COORDENADA_Y": 4582078.148 }, "geometry": { "type": "Point", "coordinates": [ 2.190857, 41.387389 ] } },
{ "type": "Feature", "properties": { "INVENTARI_CODI": "01-148", "INVENTARI_NOM": " ", "INVENTARI_TIPUS": "Font de beure", "INVENTARI_CARRER": "PARC CIUTADELLA", "INVENTARI_NUMERO_CARRER": "20.I", "INVENTARI_COORDENADA_X": 432109.48, "INVENTARI_COORDENADA_Y": 4582231.04 }, "geometry": { "type": "Point", "coordinates": [ 2.187969, 41.388745 ] } },
{ "type": "Feature", "properties": { "INVENTARI_CODI": "01-149", "INVENTARI_NOM": "Pou de la Figuera", "INVENTARI_TIPUS": "Font de beure", "INVENTARI_CARRER": "C JAUME GIRALT", "INVENTARI_NUMERO_CARRER": "34-32", "INVENTARI_COORDENADA_X": 431373.598, "INVENTARI_COORDENADA_Y": 4582118.145 }, "geometry": { "type": "Point", "coordinates": [ 2.179181, 41.387666 ] } },
{ "type": "Feature", "properties": { "INVENTARI_CODI": "01-150", "INVENTARI_NOM": "Pg Marítim de la Barceloneta \/ C. Gas", "INVENTARI_TIPUS": "Font de beure", "INVENTARI_CARRER": "PG MARITIM DE LA BARCELONETA", "INVENTARI_NUMERO_CARRER": "15-21", "INVENTARI_COORDENADA_X": 432611.175, "INVENTARI_COORDENADA_Y": 4581526.475 }, "geometry": { "type": "Point", "coordinates": [ 2.194047, 41.382442 ] } },
{ "type": "Feature", "properties": { "INVENTARI_CODI": "01-151", "INVENTARI_NOM": "Darrera Gran Cascada", "INVENTARI_TIPUS": "Font de beure", "INVENTARI_CARRER": "PARC CIUTADELLA", "INVENTARI_NUMERO_CARRER": "50", "INVENTARI_COORDENADA_X": 432043.721, "INVENTARI_COORDENADA_Y": 4582369.54 }, "geometry": { "type": "Point", "coordinates": [ 2.187167, 41.389987 ] } },
{ "type": "Feature", "properties": { "INVENTARI_CODI": "01-152", "INVENTARI_NOM": " ", "INVENTARI_TIPUS": "Font de beure", "INVENTARI_CARRER": "C TAPINERIA", "INVENTARI_NUMERO_CARRER": "1", "INVENTARI_COORDENADA_X": 431134.135, "INVENTARI_COORDENADA_Y": 4581800.326 }, "geometry": { "type": "Point", "coordinates": [ 2.176353, 41.384783 ] } },
{ "type": "Feature", "properties": { "INVENTARI_CODI": "01-153", "INVENTARI_NOM": "Entrada Parc de la Ciutadella (Zoo)", "INVENTARI_TIPUS": "Font de beure", "INVENTARI_CARRER": "JARD FONTSERE I MESTRE", "INVENTARI_NUMERO_CARRER": "46", "INVENTARI_COORDENADA_X": 431922.947, "INVENTARI_COORDENADA_Y": 4581911.131 }, "geometry": { "type": "Point", "coordinates": [ 2.185774, 41.385848 ] } },
{ "type": "Feature", "properties": { "INVENTARI_CODI": "01-154", "INVENTARI_NOM": " ", "INVENTARI_TIPUS": "Font de beure", "INVENTARI_CARRER": "PL CASTELLA", "INVENTARI_NUMERO_CARRER": "8", "INVENTARI_COORDENADA_X": 430167.224, "INVENTARI_COORDENADA_Y": 4581815.494 }, "geometry": { "type": "Point", "coordinates": [ 2.164788, 41.384836 ] } },
{ "type": "Feature", "properties": { "INVENTARI_CODI": "01-156", "INVENTARI_NOM": " ", "INVENTARI_TIPUS": "Font de beure", "INVENTARI_CARRER": "C BALUARD", "INVENTARI_NUMERO_CARRER": "32-30", "INVENTARI_COORDENADA_X": 432169.003, "INVENTARI_COORDENADA_Y": 4581299.828 }, "geometry": { "type": "Point", "coordinates": [ 2.188785, 41.380363 ] } },
{ "type": "Feature", "properties": { "INVENTARI_CODI": "01-157", "INVENTARI_NOM": "Pl. Pijoan", "INVENTARI_TIPUS": "Font de beure", "INVENTARI_CARRER": "C JOSEP PIJOAN", "INVENTARI_NUMERO_CARRER": "5", "INVENTARI_COORDENADA_X": 431189.39, "INVENTARI_COORDENADA_Y": 4581158.015 }, "geometry": { "type": "Point", "coordinates": [ 2.177087, 41.379003 ] } },
{ "type": "Feature", "properties": { "INVENTARI_CODI": "01-158", "INVENTARI_NOM": "Pl. Vicenç Martorell", "INVENTARI_TIPUS": "Font de beure", "INVENTARI_CARRER": "PL. VICENÇ MARTORELL", "INVENTARI_NUMERO_CARRER": " ", "INVENTARI_COORDENADA_X": 430510.924, "INVENTARI_COORDENADA_Y": 4581742.411 }, "geometry": { "type": "Point", "coordinates": [ 2.168907, 41.384208 ] } },
{ "type": "Feature", "properties": { "INVENTARI_CODI": "01-159", "INVENTARI_NOM": "Andrea Doria cantonada Miquel Boera", "INVENTARI_TIPUS": "Font de beure", "INVENTARI_CARRER": "MIQUEL BOERA", "INVENTARI_NUMERO_CARRER": "34-36", "INVENTARI_COORDENADA_X": 432449.534, "INVENTARI_COORDENADA_Y": 4581334.626 }, "geometry": { "type": "Point", "coordinates": [ 2.192136, 41.3807 ] } },
{ "type": "Feature", "properties": { "INVENTARI_CODI": "01-160", "INVENTARI_NOM": " ", "INVENTARI_TIPUS": "Font de beure", "INVENTARI_CARRER": "Estació de França", "INVENTARI_NUMERO_CARRER": " ", "INVENTARI_COORDENADA_X": 432054.755, "INVENTARI_COORDENADA_Y": 4581626.969 }, "geometry": { "type": "Point", "coordinates": [ 2.187382, 41.3833 ] } },
{ "type": "Feature", "properties": { "INVENTARI_CODI": "02-002", "INVENTARI_NOM": "Viladomat", "INVENTARI_TIPUS": "Font de beure", "INVENTARI_CARRER": "C VILADOMAT", "INVENTARI_NUMERO_CARRER": "284", "INVENTARI_COORDENADA_X": 428600.444, "INVENTARI_COORDENADA_Y": 4582223.406 }, "geometry": { "type": "Point", "coordinates": [ 2.146003, 41.388373 ] } },
{ "type": "Feature", "properties": { "INVENTARI_CODI": "02-003", "INVENTARI_NOM": "Sarrià, Av", "INVENTARI_TIPUS": "Font de beure", "INVENTARI_CARRER": "C COMTE D'URGELL", "INVENTARI_NUMERO_CARRER": "238", "INVENTARI_COORDENADA_X": 428801.486, "INVENTARI_COORDENADA_Y": 4582367.175 }, "geometry": { "type": "Point", "coordinates": [ 2.14839, 41.389685 ] } },
{ "type": "Feature", "properties": { "INVENTARI_CODI": "02-004", "INVENTARI_NOM": "Urgell", "INVENTARI_TIPUS": "Font de beure", "INVENTARI_CARRER": "C ROSSELLO", "INVENTARI_NUMERO_CARRER": "143", "INVENTARI_COORDENADA_X": 428998.325, "INVENTARI_COORDENADA_Y": 4582226.443 }, "geometry": { "type": "Point", "coordinates": [ 2.150761, 41.388435 ] } },
{ "type": "Feature", "properties": { "INVENTARI_CODI": "02-005", "INVENTARI_NOM": "Urgell", "INVENTARI_TIPUS": "Font de beure", "INVENTARI_CARRER": "C PROVENÇA", "INVENTARI_NUMERO_CARRER": "125", "INVENTARI_COORDENADA_X": 429077.934, "INVENTARI_COORDENADA_Y": 4582127.122 }, "geometry": { "type": "Point", "coordinates": [ 2.151725, 41.387548 ] } },
{ "type": "Feature", "properties": { "INVENTARI_CODI": "02-006", "INVENTARI_NOM": "Provença", "INVENTARI_TIPUS": "Font de beure", "INVENTARI_CARRER": "C CALABRIA", "INVENTARI_NUMERO_CARRER": "208", "INVENTARI_COORDENADA_X": 428807.812, "INVENTARI_COORDENADA_Y": 4581813.904 }, "geometry": { "type": "Point", "coordinates": [ 2.148531, 41.384703 ] } },
{ "type": "Feature", "properties": { "INVENTARI_CODI": "02-007", "INVENTARI_NOM": "Entença", "INVENTARI_TIPUS": "Font de beure", "INVENTARI_CARRER": "C PROVENÇA", "INVENTARI_NUMERO_CARRER": "56", "INVENTARI_COORDENADA_X": 428623.29, "INVENTARI_COORDENADA_Y": 4581653.085 }, "geometry": { "type": "Point", "coordinates": [ 2.146343, 41.383238 ] } },
{ "type": "Feature", "properties": { "INVENTARI_CODI": "02-008", "INVENTARI_NOM": "València", "INVENTARI_TIPUS": "Font de beure", "INVENTARI_CARRER": "C COMTE BORRELL", "INVENTARI_NUMERO_CARRER": "184.B", "INVENTARI_COORDENADA_X": 429149.972, "INVENTARI_COORDENADA_Y": 4581841.801 }, "geometry": { "type": "Point", "coordinates": [ 2.15262, 41.384984 ] } },
{ "type": "Feature", "properties": { "INVENTARI_CODI": "02-009", "INVENTARI_NOM": "Londres", "INVENTARI_TIPUS": "Font de beure", "INVENTARI_CARRER": "C LONDRES", "INVENTARI_NUMERO_CARRER": "99", "INVENTARI_COORDENADA_X": 428965.859, "INVENTARI_COORDENADA_Y": 4582768.574 }, "geometry": { "type": "Point", "coordinates": [ 2.150309, 41.393315 ] } },
{ "type": "Feature", "properties": { "INVENTARI_CODI": "02-010", "INVENTARI_NOM": "Calabria", "INVENTARI_TIPUS": "Font de beure", "INVENTARI_CARRER": "C ARAGO", "INVENTARI_NUMERO_CARRER": "99", "INVENTARI_COORDENADA_X": 429046.66, "INVENTARI_COORDENADA_Y": 4581524.502 }, "geometry": { "type": "Point", "coordinates": [ 2.151421, 41.382117 ] } },
{ "type": "Feature", "properties": { "INVENTARI_CODI": "02-011", "INVENTARI_NOM": "Rocafort", "INVENTARI_TIPUS": "Font de beure", "INVENTARI_CARRER": "C CONSELL DE CENT", "INVENTARI_NUMERO_CARRER": "101", "INVENTARI_COORDENADA_X": 429045.478, "INVENTARI_COORDENADA_Y": 4581339.131 }, "geometry": { "type": "Point", "coordinates": [ 2.151429, 41.380448 ] } },
{ "type": "Feature", "properties": { "INVENTARI_CODI": "02-012", "INVENTARI_NOM": "Entença", "INVENTARI_TIPUS": "Font de beure", "INVENTARI_CARRER": "C CONSELL DE CENT", "INVENTARI_NUMERO_CARRER": "80", "INVENTARI_COORDENADA_X": 428958.778, "INVENTARI_COORDENADA_Y": 4581233.742 }, "geometry": { "type": "Point", "coordinates": [ 2.150405, 41.379491 ] } },
{ "type": "Feature", "properties": { "INVENTARI_CODI": "02-013", "INVENTARI_NOM": "Vilamarí", "INVENTARI_TIPUS": "Font de beure", "INVENTARI_CARRER": "C ARAGO", "INVENTARI_NUMERO_CARRER": "39", "INVENTARI_COORDENADA_X": 428780.327, "INVENTARI_COORDENADA_Y": 4581235.083 }, "geometry": { "type": "Point", "coordinates": [ 2.14827, 41.379487 ] } },
{ "type": "Feature", "properties": { "INVENTARI_CODI": "02-014", "INVENTARI_NOM": "Diputació", "INVENTARI_TIPUS": "Font de beure", "INVENTARI_CARRER": "C CALABRIA", "INVENTARI_NUMERO_CARRER": "119-121", "INVENTARI_COORDENADA_X": 429232.599, "INVENTARI_COORDENADA_Y": 4581349.08 }, "geometry": { "type": "Point", "coordinates": [ 2.153665, 41.380554 ] } },
{ "type": "Feature", "properties": { "INVENTARI_CODI": "02-015", "INVENTARI_NOM": "Viladomat", "INVENTARI_TIPUS": "Font de beure", "INVENTARI_CARRER": "C CONSELL DE CENT", "INVENTARI_NUMERO_CARRER": "149", "INVENTARI_COORDENADA_X": 429264.51, "INVENTARI_COORDENADA_Y": 4581554.35 }, "geometry": { "type": "Point", "coordinates": [ 2.154023, 41.382406 ] } },
{ "type": "Feature", "properties": { "INVENTARI_CODI": "02-016", "INVENTARI_NOM": "Vilamarí", "INVENTARI_TIPUS": "Font de beure", "INVENTARI_CARRER": "C DIPUTACIO", "INVENTARI_NUMERO_CARRER": "24", "INVENTARI_COORDENADA_X": 428988.646, "INVENTARI_COORDENADA_Y": 4581073.101 }, "geometry": { "type": "Point", "coordinates": [ 2.15078, 41.378047 ] } },
{ "type": "Feature", "properties": { "INVENTARI_CODI": "02-017", "INVENTARI_NOM": "Sepúlveda", "INVENTARI_TIPUS": "Font de beure", "INVENTARI_CARRER": "C VILAMARI", "INVENTARI_NUMERO_CARRER": "23", "INVENTARI_COORDENADA_X": 429151.815, "INVENTARI_COORDENADA_Y": 4580868.2 }, "geometry": { "type": "Point", "coordinates": [ 2.152756, 41.376216 ] } },
{ "type": "Feature", "properties": { "INVENTARI_CODI": "02-018", "INVENTARI_NOM": "Entença", "INVENTARI_TIPUS": "Font de beure", "INVENTARI_CARRER": "C FLORIDABLANCA", "INVENTARI_NUMERO_CARRER": "57", "INVENTARI_COORDENADA_X": 429384.245, "INVENTARI_COORDENADA_Y": 4580853.288 }, "geometry": { "type": "Point", "coordinates": [ 2.155537, 41.376102 ] } },
{ "type": "Feature", "properties": { "INVENTARI_CODI": "02-019", "INVENTARI_NOM": "Rocafort", "INVENTARI_TIPUS": "Font de beure", "INVENTARI_CARRER": "C TAMARIT", "INVENTARI_NUMERO_CARRER": "109", "INVENTARI_COORDENADA_X": 429532.745, "INVENTARI_COORDENADA_Y": 4580847.517 }, "geometry": { "type": "Point", "coordinates": [ 2.157313, 41.376063 ] } },
{ "type": "Feature", "properties": { "INVENTARI_CODI": "02-021", "INVENTARI_NOM": "Floridablanca", "INVENTARI_TIPUS": "Font de beure", "INVENTARI_CARRER": "C VILADOMAT", "INVENTARI_NUMERO_CARRER": "81-83", "INVENTARI_COORDENADA_X": 429630.988, "INVENTARI_COORDENADA_Y": 4581137.957 }, "geometry": { "type": "Point", "coordinates": [ 2.158454, 41.378687 ] } },
{ "type": "Feature", "properties": { "INVENTARI_CODI": "02-022", "INVENTARI_NOM": "Viladomat", "INVENTARI_TIPUS": "Font de beure", "INVENTARI_CARRER": "C VILADOMAT", "INVENTARI_NUMERO_CARRER": "39", "INVENTARI_COORDENADA_X": 429838.887, "INVENTARI_COORDENADA_Y": 4580921.225 }, "geometry": { "type": "Point", "coordinates": [ 2.160965, 41.376753 ] } },
{ "type": "Feature", "properties": { "INVENTARI_CODI": "02-023", "INVENTARI_NOM": "Tamarit", "INVENTARI_TIPUS": "Font de beure", "INVENTARI_CARRER": "C COMTE BORRELL", "INVENTARI_NUMERO_CARRER": "79", "INVENTARI_COORDENADA_X": 429846.748, "INVENTARI_COORDENADA_Y": 4581114.975 }, "geometry": { "type": "Point", "coordinates": [ 2.161037, 41.378499 ] } },
{ "type": "Feature", "properties": { "INVENTARI_CODI": "02-024", "INVENTARI_NOM": "Sepúlveda", "INVENTARI_TIPUS": "Font de beure", "INVENTARI_CARRER": "C CASANOVA", "INVENTARI_NUMERO_CARRER": "20", "INVENTARI_COORDENADA_X": 429959.342, "INVENTARI_COORDENADA_Y": 4581591.715 }, "geometry": { "type": "Point", "coordinates": [ 2.162328, 41.382803 ] } },
{ "type": "Feature", "properties": { "INVENTARI_CODI": "02-025", "INVENTARI_NOM": "Diputació", "INVENTARI_TIPUS": "Font de beure", "INVENTARI_CARRER": "C COMTE BORRELL", "INVENTARI_NUMERO_CARRER": "151", "INVENTARI_COORDENADA_X": 429454.43, "INVENTARI_COORDENADA_Y": 4581511.369 }, "geometry": { "type": "Point", "coordinates": [ 2.156299, 41.382035 ] } },
{ "type": "Feature", "properties": { "INVENTARI_CODI": "02-026", "INVENTARI_NOM": "Aribau", "INVENTARI_TIPUS": "Font de beure", "INVENTARI_CARRER": "C DIPUTACIO", "INVENTARI_NUMERO_CARRER": "207", "INVENTARI_COORDENADA_X": 429899.145, "INVENTARI_COORDENADA_Y": 4581985.426 }, "geometry": { "type": "Point", "coordinates": [ 2.161562, 41.386344 ] } },
{ "type": "Feature", "properties": { "INVENTARI_CODI": "02-027", "INVENTARI_NOM": "València", "INVENTARI_TIPUS": "Font de beure", "INVENTARI_CARRER": "C MUNTANER", "INVENTARI_NUMERO_CARRER": "90", "INVENTARI_COORDENADA_X": 429571.366, "INVENTARI_COORDENADA_Y": 4582178.449 }, "geometry": { "type": "Point", "coordinates": [ 2.15762, 41.388053 ] } },
{ "type": "Feature", "properties": { "INVENTARI_CODI": "02-028", "INVENTARI_NOM": "Enric Granados", "INVENTARI_TIPUS": "Font de beure", "INVENTARI_CARRER": "C MALLORCA", "INVENTARI_NUMERO_CARRER": "210-208", "INVENTARI_COORDENADA_X": 429630.438, "INVENTARI_COORDENADA_Y": 4582453.449 }, "geometry": { "type": "Point", "coordinates": [ 2.158295, 41.390535 ] } },
{ "type": "Feature", "properties": { "INVENTARI_CODI": "02-029", "INVENTARI_NOM": "Aribau", "INVENTARI_TIPUS": "Font de beure", "INVENTARI_CARRER": "C MALLORCA", "INVENTARI_NUMERO_CARRER": "195", "INVENTARI_COORDENADA_X": 429524.967, "INVENTARI_COORDENADA_Y": 4582367.529 }, "geometry": { "type": "Point", "coordinates": [ 2.157043, 41.389752 ] } },
{ "type": "Feature", "properties": { "INVENTARI_CODI": "02-030", "INVENTARI_NOM": "Enric Granados", "INVENTARI_TIPUS": "Font de beure", "INVENTARI_CARRER": "C ROSSELLO", "INVENTARI_NUMERO_CARRER": "180-178", "INVENTARI_COORDENADA_X": 429442.519, "INVENTARI_COORDENADA_Y": 4582643.96 }, "geometry": { "type": "Point", "coordinates": [ 2.156025, 41.392235 ] } },
{ "type": "Feature", "properties": { "INVENTARI_CODI": "02-031", "INVENTARI_NOM": "Rosselló", "INVENTARI_TIPUS": "Font de beure", "INVENTARI_CARRER": "C MUNTANER", "INVENTARI_NUMERO_CARRER": "156", "INVENTARI_COORDENADA_X": 429286.707, "INVENTARI_COORDENADA_Y": 4582477.951 }, "geometry": { "type": "Point", "coordinates": [ 2.154181, 41.390726 ] } },
{ "type": "Feature", "properties": { "INVENTARI_CODI": "02-032", "INVENTARI_NOM": "Doctor Letamendi \/ costat mar", "INVENTARI_TIPUS": "Font de beure", "INVENTARI_CARRER": "PL DOCTOR LETAMENDI", "INVENTARI_NUMERO_CARRER": "35", "INVENTARI_COORDENADA_X": 429863.227, "INVENTARI_COORDENADA_Y": 4582269.707 }, "geometry": { "type": "Point", "coordinates": [ 2.1611, 41.388901 ] } },
{ "type": "Feature", "properties": { "INVENTARI_CODI": "02-034", "INVENTARI_NOM": "Córsega", "INVENTARI_TIPUS": "Font de beure", "INVENTARI_CARRER": "C BALMES", "INVENTARI_NUMERO_CARRER": "145", "INVENTARI_COORDENADA_X": 429467.03, "INVENTARI_COORDENADA_Y": 4582838.411 }, "geometry": { "type": "Point", "coordinates": [ 2.156295, 41.393988 ] } },
{ "type": "Feature", "properties": { "INVENTARI_CODI": "02-035", "INVENTARI_NOM": "Rambla Catalunya", "INVENTARI_TIPUS": "Font de beure", "INVENTARI_CARRER": "C MALLORCA", "INVENTARI_NUMERO_CARRER": "238", "INVENTARI_COORDENADA_X": 429856.6, "INVENTARI_COORDENADA_Y": 4582674.067 }, "geometry": { "type": "Point", "coordinates": [ 2.160974, 41.392542 ] } },
{ "type": "Feature", "properties": { "INVENTARI_CODI": "02-036", "INVENTARI_NOM": "Pau Claris \/ Passeig de Gràcia", "INVENTARI_TIPUS": "Font de beure", "INVENTARI_CARRER": "C PROVENÇA", "INVENTARI_NUMERO_CARRER": "298-296", "INVENTARI_COORDENADA_X": 429951.272, "INVENTARI_COORDENADA_Y": 4582957.137 }, "geometry": { "type": "Point", "coordinates": [ 2.162073, 41.3951 ] } },
{ "type": "Feature", "properties": { "INVENTARI_CODI": "02-037", "INVENTARI_NOM": "València", "INVENTARI_TIPUS": "Font de beure", "INVENTARI_CARRER": "C ROGER DE LLURIA", "INVENTARI_NUMERO_CARRER": "87", "INVENTARI_COORDENADA_X": 430287.103, "INVENTARI_COORDENADA_Y": 4582958.375 }, "geometry": { "type": "Point", "coordinates": [ 2.16609, 41.39514 ] } },
{ "type": "Feature", "properties": { "INVENTARI_CODI": "02-038", "INVENTARI_NOM": "Rambla Catalunya", "INVENTARI_TIPUS": "Font de beure", "INVENTARI_CARRER": "C DIPUTACIO", "INVENTARI_NUMERO_CARRER": "253", "INVENTARI_COORDENADA_X": 430226.418, "INVENTARI_COORDENADA_Y": 4582310.954 }, "geometry": { "type": "Point", "coordinates": [ 2.165439, 41.389304 ] } },
{ "type": "Feature", "properties": { "INVENTARI_CODI": "02-040", "INVENTARI_NOM": "davant boca metro central", "INVENTARI_TIPUS": "Font de beure", "INVENTARI_CARRER": "PL CATALUNYA", "INVENTARI_NUMERO_CARRER": "9", "INVENTARI_COORDENADA_X": 430566.166, "INVENTARI_COORDENADA_Y": 4582051.711 }, "geometry": { "type": "Point", "coordinates": [ 2.169532, 41.386998 ] } },
{ "type": "Feature", "properties": { "INVENTARI_CODI": "02-041", "INVENTARI_NOM": "Casp", "INVENTARI_TIPUS": "Font de beure", "INVENTARI_CARRER": "C BRUC", "INVENTARI_NUMERO_CARRER": "29", "INVENTARI_COORDENADA_X": 430902.87, "INVENTARI_COORDENADA_Y": 4582515.479 }, "geometry": { "type": "Point", "coordinates": [ 2.173506, 41.391204 ] } },
{ "type": "Feature", "properties": { "INVENTARI_CODI": "02-043", "INVENTARI_NOM": "Sant Joan, Pg", "INVENTARI_TIPUS": "Font de beure", "INVENTARI_CARRER": "PL TETUAN", "INVENTARI_NUMERO_CARRER": "1", "INVENTARI_COORDENADA_X": 431151.173, "INVENTARI_COORDENADA_Y": 4582821.318 }, "geometry": { "type": "Point", "coordinates": [ 2.176441, 41.39398 ] } },
{ "type": "Feature", "properties": { "INVENTARI_CODI": "02-044", "INVENTARI_NOM": "Bruc", "INVENTARI_TIPUS": "Font de beure", "INVENTARI_CARRER": "C DIPUTACIO", "INVENTARI_NUMERO_CARRER": "321", "INVENTARI_COORDENADA_X": 430700.402, "INVENTARI_COORDENADA_Y": 4582771.281 }, "geometry": { "type": "Point", "coordinates": [ 2.171055, 41.393491 ] } },
{ "type": "Feature", "properties": { "INVENTARI_CODI": "02-045", "INVENTARI_NOM": "Consell de Cent", "INVENTARI_TIPUS": "Font de beure", "INVENTARI_CARRER": "C GIRONA", "INVENTARI_NUMERO_CARRER": "73", "INVENTARI_COORDENADA_X": 430705.813, "INVENTARI_COORDENADA_Y": 4582911.571000001 }, "geometry": { "type": "Point", "coordinates": [ 2.171104, 41.394755 ] } },
{ "type": "Feature", "properties": { "INVENTARI_CODI": "02-046", "INVENTARI_NOM": "Roger de Flor", "INVENTARI_TIPUS": "Font de beure", "INVENTARI_CARRER": "C ROGER DE FLOR", "INVENTARI_NUMERO_CARRER": "424", "INVENTARI_COORDENADA_X": 430995.876, "INVENTARI_COORDENADA_Y": 4583218.32 }, "geometry": { "type": "Point", "coordinates": [ 2.174538, 41.397543 ] } },
{ "type": "Feature", "properties": { "INVENTARI_CODI": "02-047", "INVENTARI_NOM": "Consell de Cent", "INVENTARI_TIPUS": "Font de beure", "INVENTARI_CARRER": "C NAPOLS", "INVENTARI_NUMERO_CARRER": "180", "INVENTARI_COORDENADA_X": 431091.317, "INVENTARI_COORDENADA_Y": 4583309.409 }, "geometry": { "type": "Point", "coordinates": [ 2.175669, 41.398371 ] } },
{ "type": "Feature", "properties": { "INVENTARI_CODI": "02-048", "INVENTARI_NOM": "Pg. Sant Joan", "INVENTARI_TIPUS": "Font de beure", "INVENTARI_CARRER": "PG. SANT JOAN", "INVENTARI_NUMERO_CARRER": "89", "INVENTARI_COORDENADA_X": 430666.286, "INVENTARI_COORDENADA_Y": 4583321.792 }, "geometry": { "type": "Point", "coordinates": [ 2.170584, 41.398446 ] } },
{ "type": "Feature", "properties": { "INVENTARI_CODI": "02-049", "INVENTARI_NOM": "Roger de Flor", "INVENTARI_TIPUS": "Font de beure", "INVENTARI_CARRER": "JARD CONSTANÇA D' ARAGÓ", "INVENTARI_NUMERO_CARRER": "377", "INVENTARI_COORDENADA_X": 430884.336, "INVENTARI_COORDENADA_Y": 4583337.841 }, "geometry": { "type": "Point", "coordinates": [ 2.17319, 41.39861 ] } },
{ "type": "Feature", "properties": { "INVENTARI_CODI": "02-050", "INVENTARI_NOM": "Nàpols", "INVENTARI_TIPUS": "Font de beure", "INVENTARI_CARRER": "C MALLORCA", "INVENTARI_NUMERO_CARRER": "360", "INVENTARI_COORDENADA_X": 430787.058, "INVENTARI_COORDENADA_Y": 4583579.642 }, "geometry": { "type": "Point", "coordinates": [ 2.171999, 41.400779 ] } },
{ "type": "Feature", "properties": { "INVENTARI_CODI": "02-051", "INVENTARI_NOM": "Provença \/ Rosselló", "INVENTARI_TIPUS": "Font de beure", "INVENTARI_CARRER": "C ROGER DE FLOR", "INVENTARI_NUMERO_CARRER": "213-215", "INVENTARI_COORDENADA_X": 430548.648, "INVENTARI_COORDENADA_Y": 4583647.574 }, "geometry": { "type": "Point", "coordinates": [ 2.169139, 41.40137 ] } },
{ "type": "Feature", "properties": { "INVENTARI_CODI": "02-052", "INVENTARI_NOM": "Padilla", "INVENTARI_TIPUS": "Font de beure", "INVENTARI_CARRER": "C INDUSTRIA", "INVENTARI_NUMERO_CARRER": "138", "INVENTARI_COORDENADA_X": 430906.395, "INVENTARI_COORDENADA_Y": 4584475.342 }, "geometry": { "type": "Point", "coordinates": [ 2.173324, 41.408857 ] } },
{ "type": "Feature", "properties": { "INVENTARI_CODI": "02-053", "INVENTARI_NOM": "Cartagena", "INVENTARI_TIPUS": "Font de beure", "INVENTARI_CARRER": "C INDUSTRIA", "INVENTARI_NUMERO_CARRER": "171-173", "INVENTARI_COORDENADA_X": 431097.567, "INVENTARI_COORDENADA_Y": 4584659.801 }, "geometry": { "type": "Point", "coordinates": [ 2.17559, 41.410534 ] } },
{ "type": "Feature", "properties": { "INVENTARI_CODI": "02-054", "INVENTARI_NOM": "Cartagena", "INVENTARI_TIPUS": "Font de beure", "INVENTARI_CARRER": "C MALLORCA", "INVENTARI_NUMERO_CARRER": "496", "INVENTARI_COORDENADA_X": 431483.144, "INVENTARI_COORDENADA_Y": 4584267.928 }, "geometry": { "type": "Point", "coordinates": [ 2.180248, 41.407038 ] } },
{ "type": "Feature", "properties": { "INVENTARI_CODI": "02-055", "INVENTARI_NOM": "Sardenya", "INVENTARI_TIPUS": "Font de beure", "INVENTARI_CARRER": "C MALLORCA", "INVENTARI_NUMERO_CARRER": "406", "INVENTARI_COORDENADA_X": 431002.59, "INVENTARI_COORDENADA_Y": 4583793.58 }, "geometry": { "type": "Point", "coordinates": [ 2.174553, 41.402724 ] } },
{ "type": "Feature", "properties": { "INVENTARI_CODI": "02-056", "INVENTARI_NOM": "Lepant", "INVENTARI_TIPUS": "Font de beure", "INVENTARI_CARRER": "C ENAMORATS", "INVENTARI_NUMERO_CARRER": "9", "INVENTARI_COORDENADA_X": 431430.38, "INVENTARI_COORDENADA_Y": 4583714.627 }, "geometry": { "type": "Point", "coordinates": [ 2.179679, 41.40205 ] } },
{ "type": "Feature", "properties": { "INVENTARI_CODI": "02-057", "INVENTARI_NOM": "Diagonal", "INVENTARI_TIPUS": "Font de beure", "INVENTARI_CARRER": "C PADILLA", "INVENTARI_NUMERO_CARRER": "186-172", "INVENTARI_COORDENADA_X": 431568.121, "INVENTARI_COORDENADA_Y": 4583745.106 }, "geometry": { "type": "Point", "coordinates": [ 2.181323, 41.402336 ] } },
{ "type": "Feature", "properties": { "INVENTARI_CODI": "02-058", "INVENTARI_NOM": "Gran Via de les Corts Catalanes", "INVENTARI_TIPUS": "Font de beure", "INVENTARI_CARRER": "C CASTILLEJOS", "INVENTARI_NUMERO_CARRER": "175", "INVENTARI_COORDENADA_X": 431814.911, "INVENTARI_COORDENADA_Y": 4583689.174 }, "geometry": { "type": "Point", "coordinates": [ 2.184282, 41.401853 ] } },
{ "type": "Feature", "properties": { "INVENTARI_CODI": "02-059", "INVENTARI_NOM": "Sardenya", "INVENTARI_TIPUS": "Font de beure", "INVENTARI_CARRER": "C DIPUTACIO", "INVENTARI_NUMERO_CARRER": "429-431", "INVENTARI_COORDENADA_X": 431336.448, "INVENTARI_COORDENADA_Y": 4583400.757 }, "geometry": { "type": "Point", "coordinates": [ 2.178591, 41.399215 ] } },
{ "type": "Feature", "properties": { "INVENTARI_CODI": "02-060", "INVENTARI_NOM": "Casp", "INVENTARI_TIPUS": "Font de beure", "INVENTARI_CARRER": "C SARDENYA", "INVENTARI_NUMERO_CARRER": "172.B", "INVENTARI_COORDENADA_X": 431572.766, "INVENTARI_COORDENADA_Y": 4583169.555 }, "geometry": { "type": "Point", "coordinates": [ 2.181444, 41.397153 ] } },
{ "type": "Feature", "properties": { "INVENTARI_CODI": "02-061", "INVENTARI_NOM": "Carles I", "INVENTARI_TIPUS": "Font de beure", "INVENTARI_CARRER": "C AUSIAS MARC", "INVENTARI_NUMERO_CARRER": "149", "INVENTARI_COORDENADA_X": 431721.637, "INVENTARI_COORDENADA_Y": 4583180.094 }, "geometry": { "type": "Point", "coordinates": [ 2.183223, 41.39726 ] } },
{ "type": "Feature", "properties": { "INVENTARI_CODI": "02-063", "INVENTARI_NOM": "Provença", "INVENTARI_TIPUS": "Font de beure", "INVENTARI_CARRER": "C ARIBAU", "INVENTARI_NUMERO_CARRER": "113", "INVENTARI_COORDENADA_X": 429428.388, "INVENTARI_COORDENADA_Y": 4582495.81 }, "geometry": { "type": "Point", "coordinates": [ 2.155873, 41.390899 ] } },
{ "type": "Feature", "properties": { "INVENTARI_CODI": "02-064", "INVENTARI_NOM": "Borrell, 324", "INVENTARI_TIPUS": "Font de beure", "INVENTARI_CARRER": "C COMTE BORRELL", "INVENTARI_NUMERO_CARRER": "324", "INVENTARI_COORDENADA_X": 428511.796, "INVENTARI_COORDENADA_Y": 4582466.937 }, "geometry": { "type": "Point", "coordinates": [ 2.144914, 41.390558 ] } },
{ "type": "Feature", "properties": { "INVENTARI_CODI": "02-065", "INVENTARI_NOM": "Casanova davant bombers", "INVENTARI_TIPUS": "Font de beure", "INVENTARI_CARRER": "C PROVENÇA", "INVENTARI_NUMERO_CARRER": "182-164", "INVENTARI_COORDENADA_X": 429245.796, "INVENTARI_COORDENADA_Y": 4582282.621 }, "geometry": { "type": "Point", "coordinates": [ 2.153714, 41.388963 ] } },
{ "type": "Feature", "properties": { "INVENTARI_CODI": "02-067", "INVENTARI_NOM": "Vilamarí", "INVENTARI_TIPUS": "Font de beure", "INVENTARI_CARRER": "C VILAMARI", "INVENTARI_NUMERO_CARRER": "89-99", "INVENTARI_COORDENADA_X": 428601.929, "INVENTARI_COORDENADA_Y": 4581448.395 }, "geometry": { "type": "Point", "coordinates": [ 2.146112, 41.381393 ] } },
{ "type": "Feature", "properties": { "INVENTARI_CODI": "02-068", "INVENTARI_NOM": "Diputació", "INVENTARI_TIPUS": "Font de beure", "INVENTARI_CARRER": "C PAU CLARIS", "INVENTARI_NUMERO_CARRER": "107", "INVENTARI_COORDENADA_X": 430472.93, "INVENTARI_COORDENADA_Y": 4582575.833 }, "geometry": { "type": "Point", "coordinates": [ 2.168357, 41.391711 ] } },
{ "type": "Feature", "properties": { "INVENTARI_CODI": "02-069", "INVENTARI_NOM": "Bailen", "INVENTARI_TIPUS": "Font de beure", "INVENTARI_CARRER": "C DIPUTACIO", "INVENTARI_NUMERO_CARRER": "324", "INVENTARI_COORDENADA_X": 430862.803, "INVENTARI_COORDENADA_Y": 4582912.56 }, "geometry": { "type": "Point", "coordinates": [ 2.172981, 41.394777 ] } },
{ "type": "Feature", "properties": { "INVENTARI_CODI": "02-070", "INVENTARI_NOM": "Consell de Cent (gasolinera)", "INVENTARI_TIPUS": "Font de beure", "INVENTARI_CARRER": "C SARDENYA", "INVENTARI_NUMERO_CARRER": "225-227", "INVENTARI_COORDENADA_X": 431241.868, "INVENTARI_COORDENADA_Y": 4583507.528 }, "geometry": { "type": "Point", "coordinates": [ 2.177448, 41.400169 ] } },
{ "type": "Feature", "properties": { "INVENTARI_CODI": "02-071", "INVENTARI_NOM": "Sant Antoni Maria Claret", "INVENTARI_TIPUS": "Font de beure", "INVENTARI_CARRER": "C LEPANT", "INVENTARI_NUMERO_CARRER": "353", "INVENTARI_COORDENADA_X": 430725.865, "INVENTARI_COORDENADA_Y": 4584438.034 }, "geometry": { "type": "Point", "coordinates": [ 2.171169, 41.408505 ] } },
{ "type": "Feature", "properties": { "INVENTARI_CODI": "02-072", "INVENTARI_NOM": "Padilla", "INVENTARI_TIPUS": "Font de beure", "INVENTARI_CARRER": "C ROSSELLO", "INVENTARI_NUMERO_CARRER": "475", "INVENTARI_COORDENADA_X": 431099.944, "INVENTARI_COORDENADA_Y": 4584289.0 }, "geometry": { "type": "Point", "coordinates": [ 2.175661, 41.407195 ] } },
{ "type": "Feature", "properties": { "INVENTARI_CODI": "02-073", "INVENTARI_NOM": "Provença \/ Lepant \/ Padilla", "INVENTARI_TIPUS": "Font de beure", "INVENTARI_CARRER": "PL GAUDÍ", "INVENTARI_NUMERO_CARRER": "445-447", "INVENTARI_COORDENADA_X": 431052.402, "INVENTARI_COORDENADA_Y": 4584006.89 }, "geometry": { "type": "Point", "coordinates": [ 2.175124, 41.40465 ] } },
{ "type": "Feature", "properties": { "INVENTARI_CODI": "02-074", "INVENTARI_NOM": "Provença (gronxadors) \/ Av Gaudí", "INVENTARI_TIPUS": "Font de beure", "INVENTARI_CARRER": "PL GAUDÍ", "INVENTARI_NUMERO_CARRER": "5", "INVENTARI_COORDENADA_X": 431121.002, "INVENTARI_COORDENADA_Y": 4583989.87 }, "geometry": { "type": "Point", "coordinates": [ 2.175947, 41.404503 ] } },
{ "type": "Feature", "properties": { "INVENTARI_CODI": "02-075", "INVENTARI_NOM": "Padilla", "INVENTARI_TIPUS": "Font de beure", "INVENTARI_CARRER": "C MALLORCA", "INVENTARI_NUMERO_CARRER": "456-454", "INVENTARI_COORDENADA_X": 431295.733, "INVENTARI_COORDENADA_Y": 4584083.419 }, "geometry": { "type": "Point", "coordinates": [ 2.178027, 41.40536 ] } },
{ "type": "Feature", "properties": { "INVENTARI_CODI": "02-076", "INVENTARI_NOM": "Parc del Nord", "INVENTARI_TIPUS": "Font de beure", "INVENTARI_CARRER": "PARC ESTACIÓ DEL NORD", "INVENTARI_NUMERO_CARRER": "SN", "INVENTARI_COORDENADA_X": 431690.793, "INVENTARI_COORDENADA_Y": 4582691.754 }, "geometry": { "type": "Point", "coordinates": [ 2.18291, 41.392859 ] } },
{ "type": "Feature", "properties": { "INVENTARI_CODI": "02-078", "INVENTARI_NOM": "Pg Sant joan", "INVENTARI_TIPUS": "Font de beure", "INVENTARI_CARRER": "C DIPUTACIO", "INVENTARI_NUMERO_CARRER": "357", "INVENTARI_COORDENADA_X": 430991.335, "INVENTARI_COORDENADA_Y": 4583055.079 }, "geometry": { "type": "Point", "coordinates": [ 2.174502, 41.396072 ] } },
{ "type": "Feature", "properties": { "INVENTARI_CODI": "02-079", "INVENTARI_NOM": "Rda Sant Pau", "INVENTARI_TIPUS": "Font de beure", "INVENTARI_CARRER": "C MANSO", "INVENTARI_NUMERO_CARRER": "78", "INVENTARI_COORDENADA_X": 430018.898, "INVENTARI_COORDENADA_Y": 4581109.414 }, "geometry": { "type": "Point", "coordinates": [ 2.163096, 41.378464 ] } },
{ "type": "Feature", "properties": { "INVENTARI_CODI": "02-080", "INVENTARI_NOM": "Floridablanca", "INVENTARI_TIPUS": "Font de beure", "INVENTARI_CARRER": "C VILLARROEL", "INVENTARI_NUMERO_CARRER": "17", "INVENTARI_COORDENADA_X": 429937.26, "INVENTARI_COORDENADA_Y": 4581392.085 }, "geometry": { "type": "Point", "coordinates": [ 2.162087, 41.381003 ] } },
{ "type": "Feature", "properties": { "INVENTARI_CODI": "02-081", "INVENTARI_NOM": "Villarroel", "INVENTARI_TIPUS": "Font de beure", "INVENTARI_CARRER": "C DIPUTACIO", "INVENTARI_NUMERO_CARRER": "159", "INVENTARI_COORDENADA_X": 429653.742, "INVENTARI_COORDENADA_Y": 4581745.327 }, "geometry": { "type": "Point", "coordinates": [ 2.158655, 41.38416 ] } },
{ "type": "Feature", "properties": { "INVENTARI_CODI": "02-082", "INVENTARI_NOM": "Muntaner", "INVENTARI_TIPUS": "Font de beure", "INVENTARI_CARRER": "C CONSELL DE CENT", "INVENTARI_NUMERO_CARRER": "232", "INVENTARI_COORDENADA_X": 429730.454, "INVENTARI_COORDENADA_Y": 4581982.887 }, "geometry": { "type": "Point", "coordinates": [ 2.159545, 41.386306 ] } },
{ "type": "Feature", "properties": { "INVENTARI_CODI": "02-083", "INVENTARI_NOM": "Consell de Cent", "INVENTARI_TIPUS": "Font de beure", "INVENTARI_CARRER": "C ENRIC GRANADOS", "INVENTARI_NUMERO_CARRER": "15-17", "INVENTARI_COORDENADA_X": 429930.666, "INVENTARI_COORDENADA_Y": 4582170.166 }, "geometry": { "type": "Point", "coordinates": [ 2.161918, 41.38801 ] } },
{ "type": "Feature", "properties": { "INVENTARI_CODI": "02-084", "INVENTARI_NOM": "Consell de Cent", "INVENTARI_TIPUS": "Font de beure", "INVENTARI_CARRER": "C ROGER DE LLURIA", "INVENTARI_NUMERO_CARRER": "49", "INVENTARI_COORDENADA_X": 430503.331, "INVENTARI_COORDENADA_Y": 4582731.373 }, "geometry": { "type": "Point", "coordinates": [ 2.168702, 41.393115 ] } },
{ "type": "Feature", "properties": { "INVENTARI_CODI": "02-085", "INVENTARI_NOM": "Pg. St. Joan 65", "INVENTARI_TIPUS": "Font de beure", "INVENTARI_CARRER": "PG SANT JOAN", "INVENTARI_NUMERO_CARRER": "65", "INVENTARI_COORDENADA_X": 430797.075, "INVENTARI_COORDENADA_Y": 4583183.311 }, "geometry": { "type": "Point", "coordinates": [ 2.172164, 41.39721 ] } },
{ "type": "Feature", "properties": { "INVENTARI_CODI": "02-086", "INVENTARI_NOM": "València", "INVENTARI_TIPUS": "Font de beure", "INVENTARI_CARRER": "C MARINA", "INVENTARI_NUMERO_CARRER": "235", "INVENTARI_COORDENADA_X": 431186.54, "INVENTARI_COORDENADA_Y": 4583777.369 }, "geometry": { "type": "Point", "coordinates": [ 2.176755, 41.402594 ] } },
{ "type": "Feature", "properties": { "INVENTARI_CODI": "02-087", "INVENTARI_NOM": "Girona", "INVENTARI_TIPUS": "Font de beure", "INVENTARI_CARRER": "C CASP", "INVENTARI_NUMERO_CARRER": "47", "INVENTARI_COORDENADA_X": 430966.821, "INVENTARI_COORDENADA_Y": 4582614.239 }, "geometry": { "type": "Point", "coordinates": [ 2.174259, 41.392099 ] } },
{ "type": "Feature", "properties": { "INVENTARI_CODI": "02-088", "INVENTARI_NOM": "València", "INVENTARI_TIPUS": "Font de beure", "INVENTARI_CARRER": "C VALENCIA", "INVENTARI_NUMERO_CARRER": "352", "INVENTARI_COORDENADA_X": 430596.465, "INVENTARI_COORDENADA_Y": 4583203.303 }, "geometry": { "type": "Point", "coordinates": [ 2.169762, 41.397373 ] } },
{ "type": "Feature", "properties": { "INVENTARI_CODI": "02-089", "INVENTARI_NOM": "Aragó", "INVENTARI_TIPUS": "Font de beure", "INVENTARI_CARRER": "C BRUC", "INVENTARI_NUMERO_CARRER": "100", "INVENTARI_COORDENADA_X": 430480.213, "INVENTARI_COORDENADA_Y": 4582968.273 }, "geometry": { "type": "Point", "coordinates": [ 2.168399, 41.395246 ] } },
{ "type": "Feature", "properties": { "INVENTARI_CODI": "02-090", "INVENTARI_NOM": "Sardenya", "INVENTARI_TIPUS": "Font de beure", "INVENTARI_CARRER": "C ALI BEI", "INVENTARI_NUMERO_CARRER": "111", "INVENTARI_COORDENADA_X": 431761.645, "INVENTARI_COORDENADA_Y": 4583019.083 }, "geometry": { "type": "Point", "coordinates": [ 2.18372, 41.395814 ] } },
{ "type": "Feature", "properties": { "INVENTARI_CODI": "02-091", "INVENTARI_NOM": "Casp", "INVENTARI_TIPUS": "Font de beure", "INVENTARI_CARRER": "C SICILIA", "INVENTARI_NUMERO_CARRER": "152", "INVENTARI_COORDENADA_X": 431467.705, "INVENTARI_COORDENADA_Y": 4583076.736 }, "geometry": { "type": "Point", "coordinates": [ 2.180198, 41.396308 ] } },
{ "type": "Feature", "properties": { "INVENTARI_CODI": "02-092", "INVENTARI_NOM": "Gran Via de les Corts Catalanes", "INVENTARI_TIPUS": "Font de beure", "INVENTARI_CARRER": "C ROGER DE FLOR", "INVENTARI_NUMERO_CARRER": "699.A", "INVENTARI_COORDENADA_X": 431147.825, "INVENTARI_COORDENADA_Y": 4583027.068 }, "geometry": { "type": "Point", "coordinates": [ 2.176377, 41.395833 ] } },
{ "type": "Feature", "properties": { "INVENTARI_CODI": "02-093", "INVENTARI_NOM": "Consell de Cent", "INVENTARI_TIPUS": "Font de beure", "INVENTARI_CARRER": "C CONSELL DE CENT", "INVENTARI_NUMERO_CARRER": "546", "INVENTARI_COORDENADA_X": 431667.052, "INVENTARI_COORDENADA_Y": 4583873.586 }, "geometry": { "type": "Point", "coordinates": [ 2.182492, 41.403502 ] } },
{ "type": "Feature", "properties": { "INVENTARI_CODI": "02-094", "INVENTARI_NOM": "Provença \/ Mallorca", "INVENTARI_TIPUS": "Font de beure", "INVENTARI_CARRER": "PL SAGRADA FAMILIA", "INVENTARI_NUMERO_CARRER": "235", "INVENTARI_COORDENADA_X": 430846.79, "INVENTARI_COORDENADA_Y": 4583753.782 }, "geometry": { "type": "Point", "coordinates": [ 2.172694, 41.402353 ] } },
{ "type": "Feature", "properties": { "INVENTARI_CODI": "02-095", "INVENTARI_NOM": "Provença \/ Mallorca", "INVENTARI_TIPUS": "Font de beure", "INVENTARI_CARRER": "PL SAGRADA FAMILIA", "INVENTARI_NUMERO_CARRER": "15", "INVENTARI_COORDENADA_X": 430890.94, "INVENTARI_COORDENADA_Y": 4583840.021 }, "geometry": { "type": "Point", "coordinates": [ 2.173212, 41.403133 ] } },
{ "type": "Feature", "properties": { "INVENTARI_CODI": "02-096", "INVENTARI_NOM": "València", "INVENTARI_TIPUS": "Font de beure", "INVENTARI_CARRER": "C GIRONA", "INVENTARI_NUMERO_CARRER": "110", "INVENTARI_COORDENADA_X": 430521.374, "INVENTARI_COORDENADA_Y": 4583124.273 }, "geometry": { "type": "Point", "coordinates": [ 2.168873, 41.396655 ] } },
{ "type": "Feature", "properties": { "INVENTARI_CODI": "02-097", "INVENTARI_NOM": "Balmes", "INVENTARI_TIPUS": "Font de beure", "INVENTARI_CARRER": "C PROVENÇA", "INVENTARI_NUMERO_CARRER": "213", "INVENTARI_COORDENADA_X": 429662.65, "INVENTARI_COORDENADA_Y": 4582689.359 }, "geometry": { "type": "Point", "coordinates": [ 2.158652, 41.392663 ] } },
{ "type": "Feature", "properties": { "INVENTARI_CODI": "02-098", "INVENTARI_NOM": "Balmes", "INVENTARI_TIPUS": "Font de beure", "INVENTARI_CARRER": "C ARAGO", "INVENTARI_NUMERO_CARRER": "236", "INVENTARI_COORDENADA_X": 429950.648, "INVENTARI_COORDENADA_Y": 4582383.926 }, "geometry": { "type": "Point", "coordinates": [ 2.162132, 41.389937 ] } },
{ "type": "Feature", "properties": { "INVENTARI_CODI": "02-102", "INVENTARI_NOM": "València", "INVENTARI_TIPUS": "Font de beure", "INVENTARI_CARRER": "C VILLARROEL", "INVENTARI_NUMERO_CARRER": "131", "INVENTARI_COORDENADA_X": 429332.244, "INVENTARI_COORDENADA_Y": 4582022.72 }, "geometry": { "type": "Point", "coordinates": [ 2.154778, 41.38663 ] } },
{ "type": "Feature", "properties": { "INVENTARI_CODI": "02-104", "INVENTARI_NOM": "Jardins de Montserrat", "INVENTARI_TIPUS": "Font de beure", "INVENTARI_CARRER": "JARD MONTSERRAT", "INVENTARI_NUMERO_CARRER": "239", "INVENTARI_COORDENADA_X": 428563.622, "INVENTARI_COORDENADA_Y": 4581891.756 }, "geometry": { "type": "Point", "coordinates": [ 2.145602, 41.385382 ] } },
{ "type": "Feature", "properties": { "INVENTARI_CODI": "02-105", "INVENTARI_NOM": " ", "INVENTARI_TIPUS": "Font de beure", "INVENTARI_CARRER": "JARD MONTSERRAT", "INVENTARI_NUMERO_CARRER": "233", "INVENTARI_COORDENADA_X": 428593.932, "INVENTARI_COORDENADA_Y": 4581868.336 }, "geometry": { "type": "Point", "coordinates": [ 2.145967, 41.385174 ] } },
{ "type": "Feature", "properties": { "INVENTARI_CODI": "02-106", "INVENTARI_NOM": "Calabria", "INVENTARI_TIPUS": "Font de beure", "INVENTARI_CARRER": "C LONDRES", "INVENTARI_NUMERO_CARRER": "12-10", "INVENTARI_COORDENADA_X": 428432.484, "INVENTARI_COORDENADA_Y": 4582212.727 }, "geometry": { "type": "Point", "coordinates": [ 2.143996, 41.388262 ] } },
{ "type": "Feature", "properties": { "INVENTARI_CODI": "02-107", "INVENTARI_NOM": "Passadís central", "INVENTARI_TIPUS": "Font de beure", "INVENTARI_CARRER": "PARC JOAN MIRO", "INVENTARI_NUMERO_CARRER": "2", "INVENTARI_COORDENADA_X": 428746.746, "INVENTARI_COORDENADA_Y": 4581128.883 }, "geometry": { "type": "Point", "coordinates": [ 2.147881, 41.378528 ] } },
{ "type": "Feature", "properties": { "INVENTARI_CODI": "02-108", "INVENTARI_NOM": "Passadís central", "INVENTARI_TIPUS": "Font de beure", "INVENTARI_CARRER": "PARC JOAN MIRO", "INVENTARI_NUMERO_CARRER": "2", "INVENTARI_COORDENADA_X": 428782.266, "INVENTARI_COORDENADA_Y": 4581093.183 }, "geometry": { "type": "Point", "coordinates": [ 2.14831, 41.378209 ] } },
{ "type": "Feature", "properties": { "INVENTARI_CODI": "02-109", "INVENTARI_NOM": "zona pipican (gossos)", "INVENTARI_TIPUS": "Font de beure", "INVENTARI_CARRER": "C DIPUTACIO", "INVENTARI_NUMERO_CARRER": "12", "INVENTARI_COORDENADA_X": 428882.426, "INVENTARI_COORDENADA_Y": 4581045.252 }, "geometry": { "type": "Point", "coordinates": [ 2.149514, 41.377787 ] } },
{ "type": "Feature", "properties": { "INVENTARI_CODI": "02-110", "INVENTARI_NOM": "caseta", "INVENTARI_TIPUS": "Font de beure", "INVENTARI_CARRER": "PARC JOAN MIRO", "INVENTARI_NUMERO_CARRER": "4", "INVENTARI_COORDENADA_X": 428845.846, "INVENTARI_COORDENADA_Y": 4581000.722 }, "geometry": { "type": "Point", "coordinates": [ 2.149081, 41.377382 ] } },
{ "type": "Feature", "properties": { "INVENTARI_CODI": "02-112", "INVENTARI_NOM": "Sepúlveda", "INVENTARI_TIPUS": "Font de beure", "INVENTARI_CARRER": "C CALABRIA", "INVENTARI_NUMERO_CARRER": "82-80", "INVENTARI_COORDENADA_X": 429481.938, "INVENTARI_COORDENADA_Y": 4581124.548 }, "geometry": { "type": "Point", "coordinates": [ 2.156673, 41.378554 ] } },
{ "type": "Feature", "properties": { "INVENTARI_CODI": "02-113", "INVENTARI_NOM": "Comte Borrell", "INVENTARI_TIPUS": "Font de beure", "INVENTARI_CARRER": "C SEPULVEDA", "INVENTARI_NUMERO_CARRER": "107", "INVENTARI_COORDENADA_X": 429632.399, "INVENTARI_COORDENADA_Y": 4581312.357 }, "geometry": { "type": "Point", "coordinates": [ 2.158451, 41.380258 ] } },
{ "type": "Feature", "properties": { "INVENTARI_CODI": "02-114", "INVENTARI_NOM": "Parlament", "INVENTARI_TIPUS": "Font de beure", "INVENTARI_CARRER": "C CALABRIA", "INVENTARI_NUMERO_CARRER": "6-2", "INVENTARI_COORDENADA_X": 429824.375, "INVENTARI_COORDENADA_Y": 4580773.305 }, "geometry": { "type": "Point", "coordinates": [ 2.160809, 41.37542 ] } },
{ "type": "Feature", "properties": { "INVENTARI_CODI": "02-115", "INVENTARI_NOM": "Aragó", "INVENTARI_TIPUS": "Font de beure", "INVENTARI_CARRER": "C COMTE D'URGELL", "INVENTARI_NUMERO_CARRER": "132", "INVENTARI_COORDENADA_X": 429345.673, "INVENTARI_COORDENADA_Y": 4581839.95 }, "geometry": { "type": "Point", "coordinates": [ 2.15496, 41.384985 ] } },
{ "type": "Feature", "properties": { "INVENTARI_CODI": "02-116", "INVENTARI_NOM": "València", "INVENTARI_TIPUS": "Font de beure", "INVENTARI_CARRER": "C ROCAFORT", "INVENTARI_NUMERO_CARRER": "165", "INVENTARI_COORDENADA_X": 428880.72, "INVENTARI_COORDENADA_Y": 4581517.903 }, "geometry": { "type": "Point", "coordinates": [ 2.149438, 41.382043 ] } },
{ "type": "Feature", "properties": { "INVENTARI_CODI": "02-118", "INVENTARI_NOM": "Rosselló", "INVENTARI_TIPUS": "Font de beure", "INVENTARI_CARRER": "C GIRONA", "INVENTARI_NUMERO_CARRER": "161", "INVENTARI_COORDENADA_X": 430231.216, "INVENTARI_COORDENADA_Y": 4583387.366 }, "geometry": { "type": "Point", "coordinates": [ 2.165372, 41.398999 ] } },
{ "type": "Feature", "properties": { "INVENTARI_CODI": "02-124", "INVENTARI_NOM": "Ribes 1-3", "INVENTARI_TIPUS": "Font de beure", "INVENTARI_CARRER": "C RIBES", "INVENTARI_NUMERO_CARRER": "1", "INVENTARI_COORDENADA_X": 431554.592, "INVENTARI_COORDENADA_Y": 4582673.925 }, "geometry": { "type": "Point", "coordinates": [ 2.181283, 41.392687 ] } },
{ "type": "Feature", "properties": { "INVENTARI_CODI": "02-128", "INVENTARI_NOM": "Paral·lel", "INVENTARI_TIPUS": "Font de beure", "INVENTARI_CARRER": "RDA SANT PAU", "INVENTARI_NUMERO_CARRER": "1", "INVENTARI_COORDENADA_X": 430380.976, "INVENTARI_COORDENADA_Y": 4580743.05 }, "geometry": { "type": "Point", "coordinates": [ 2.167467, 41.375196 ] } },
{ "type": "Feature", "properties": { "INVENTARI_CODI": "02-129", "INVENTARI_NOM": "Pau Claris", "INVENTARI_TIPUS": "Font de beure", "INVENTARI_CARRER": "C PAU CLARIS", "INVENTARI_NUMERO_CARRER": "650", "INVENTARI_COORDENADA_X": 430626.389, "INVENTARI_COORDENADA_Y": 4582443.751 }, "geometry": { "type": "Point", "coordinates": [ 2.170207, 41.390535 ] } },
{ "type": "Feature", "properties": { "INVENTARI_CODI": "02-130", "INVENTARI_NOM": "cantonada Rambla Catalunya", "INVENTARI_TIPUS": "Font de beure", "INVENTARI_CARRER": "G.V. CORTS CATALANES", "INVENTARI_NUMERO_CARRER": "630", "INVENTARI_COORDENADA_X": 430394.538, "INVENTARI_COORDENADA_Y": 4582253.863 }, "geometry": { "type": "Point", "coordinates": [ 2.167456, 41.388804 ] } },
{ "type": "Feature", "properties": { "INVENTARI_CODI": "02-131", "INVENTARI_NOM": "Castillejos", "INVENTARI_TIPUS": "Font de beure", "INVENTARI_CARRER": "C CASTILLEJOS", "INVENTARI_NUMERO_CARRER": "183.B", "INVENTARI_COORDENADA_X": 431744.381, "INVENTARI_COORDENADA_Y": 4583784.295 }, "geometry": { "type": "Point", "coordinates": [ 2.183427, 41.402704 ] } },
{ "type": "Feature", "properties": { "INVENTARI_CODI": "02-132", "INVENTARI_NOM": "Pça Tetuan", "INVENTARI_TIPUS": "Font de beure", "INVENTARI_CARRER": "PL TETUAN", "INVENTARI_NUMERO_CARRER": "30", "INVENTARI_COORDENADA_X": 431083.244, "INVENTARI_COORDENADA_Y": 4582954.029 }, "geometry": { "type": "Point", "coordinates": [ 2.175613, 41.39517 ] } },
{ "type": "Feature", "properties": { "INVENTARI_CODI": "02-133", "INVENTARI_NOM": "Diagonal", "INVENTARI_TIPUS": "Font de beure", "INVENTARI_CARRER": "C PROVENÇA", "INVENTARI_NUMERO_CARRER": "338", "INVENTARI_COORDENADA_X": 430233.815, "INVENTARI_COORDENADA_Y": 4583239.695 }, "geometry": { "type": "Point", "coordinates": [ 2.16542, 41.397669 ] } },
{ "type": "Feature", "properties": { "INVENTARI_CODI": "02-134", "INVENTARI_NOM": "Pau Claris", "INVENTARI_TIPUS": "Font de beure", "INVENTARI_CARRER": "C PAU CLARIS", "INVENTARI_NUMERO_CARRER": "187", "INVENTARI_COORDENADA_X": 429928.494, "INVENTARI_COORDENADA_Y": 4583154.128 }, "geometry": { "type": "Point", "coordinates": [ 2.161778, 41.396872 ] } },
{ "type": "Feature", "properties": { "INVENTARI_CODI": "02-136", "INVENTARI_NOM": "Córsega", "INVENTARI_TIPUS": "Font de beure", "INVENTARI_CARRER": "C CORSEGA", "INVENTARI_NUMERO_CARRER": "310-306", "INVENTARI_COORDENADA_X": 429653.712, "INVENTARI_COORDENADA_Y": 4583062.31 }, "geometry": { "type": "Point", "coordinates": [ 2.158502, 41.396021 ] } },
{ "type": "Feature", "properties": { "INVENTARI_CODI": "02-137", "INVENTARI_NOM": " ", "INVENTARI_TIPUS": "Font de beure", "INVENTARI_CARRER": "PL URQUINAONA", "INVENTARI_NUMERO_CARRER": "3", "INVENTARI_COORDENADA_X": 430852.018, "INVENTARI_COORDENADA_Y": 4582287.249 }, "geometry": { "type": "Point", "coordinates": [ 2.172924, 41.389145 ] } },
{ "type": "Feature", "properties": { "INVENTARI_CODI": "02-139", "INVENTARI_NOM": "Enric Granados", "INVENTARI_TIPUS": "Font de beure", "INVENTARI_CARRER": "PL DOCTOR LETAMENDI", "INVENTARI_NUMERO_CARRER": "25", "INVENTARI_COORDENADA_X": 429812.167, "INVENTARI_COORDENADA_Y": 4582315.347 }, "geometry": { "type": "Point", "coordinates": [ 2.160484, 41.389308 ] } },
{ "type": "Feature", "properties": { "INVENTARI_CODI": "02-140", "INVENTARI_NOM": "Av Roma", "INVENTARI_TIPUS": "Font de beure", "INVENTARI_CARRER": "C ARAGO", "INVENTARI_NUMERO_CARRER": "150-148", "INVENTARI_COORDENADA_X": 429461.074, "INVENTARI_COORDENADA_Y": 4581937.519 }, "geometry": { "type": "Point", "coordinates": [ 2.156329, 41.385874 ] } },
{ "type": "Feature", "properties": { "INVENTARI_CODI": "02-141", "INVENTARI_NOM": "Casanova (costat Diagonal)", "INVENTARI_TIPUS": "Font de beure", "INVENTARI_CARRER": "C BUENOS AIRES", "INVENTARI_NUMERO_CARRER": "60", "INVENTARI_COORDENADA_X": 428810.759, "INVENTARI_COORDENADA_Y": 4582779.485 }, "geometry": { "type": "Point", "coordinates": [ 2.148453, 41.3934 ] } },
{ "type": "Feature", "properties": { "INVENTARI_CODI": "02-142", "INVENTARI_NOM": "Cine Comedia", "INVENTARI_TIPUS": "Font de beure", "INVENTARI_CARRER": "JARD REINA VICTORIA", "INVENTARI_NUMERO_CARRER": "609", "INVENTARI_COORDENADA_X": 430427.918, "INVENTARI_COORDENADA_Y": 4582323.983 }, "geometry": { "type": "Point", "coordinates": [ 2.167847, 41.389439 ] } },
{ "type": "Feature", "properties": { "INVENTARI_CODI": "02-144", "INVENTARI_NOM": "Ronda Sant Pau", "INVENTARI_TIPUS": "Font de beure", "INVENTARI_CARRER": "C MARQUES DE CAMPO SAGRADO", "INVENTARI_NUMERO_CARRER": "35", "INVENTARI_COORDENADA_X": 430189.827, "INVENTARI_COORDENADA_Y": 4580925.682 }, "geometry": { "type": "Point", "coordinates": [ 2.165161, 41.376824 ] } },
{ "type": "Feature", "properties": { "INVENTARI_CODI": "02-145", "INVENTARI_NOM": "Parlament", "INVENTARI_TIPUS": "Font de beure", "INVENTARI_CARRER": "C COMTE BORRELL", "INVENTARI_NUMERO_CARRER": "34", "INVENTARI_COORDENADA_X": 430046.787, "INVENTARI_COORDENADA_Y": 4580938.023 }, "geometry": { "type": "Point", "coordinates": [ 2.163449, 41.376923 ] } },
{ "type": "Feature", "properties": { "INVENTARI_CODI": "02-146", "INVENTARI_NOM": "Rocafort", "INVENTARI_TIPUS": "Font de beure", "INVENTARI_CARRER": "C ROCAFORT", "INVENTARI_NUMERO_CARRER": "446-444", "INVENTARI_COORDENADA_X": 429271.367, "INVENTARI_COORDENADA_Y": 4581119.319 }, "geometry": { "type": "Point", "coordinates": [ 2.154156, 41.378488 ] } },
{ "type": "Feature", "properties": { "INVENTARI_CODI": "02-147", "INVENTARI_NOM": "Gran Via de les Corts Catalanes", "INVENTARI_TIPUS": "Font de beure", "INVENTARI_CARRER": "C VILADOMAT", "INVENTARI_NUMERO_CARRER": "118", "INVENTARI_COORDENADA_X": 429489.459, "INVENTARI_COORDENADA_Y": 4581306.268 }, "geometry": { "type": "Point", "coordinates": [ 2.156742, 41.380191 ] } },
{ "type": "Feature", "properties": { "INVENTARI_CODI": "02-148", "INVENTARI_NOM": "Casanova", "INVENTARI_TIPUS": "Font de beure", "INVENTARI_CARRER": "C CASANOVA", "INVENTARI_NUMERO_CARRER": "36.B", "INVENTARI_COORDENADA_X": 429862.602, "INVENTARI_COORDENADA_Y": 4581695.196000001 }, "geometry": { "type": "Point", "coordinates": [ 2.161159, 41.383726 ] } },
{ "type": "Feature", "properties": { "INVENTARI_CODI": "02-149", "INVENTARI_NOM": "Sepúlveda \/ Rda. Sant Antoni", "INVENTARI_TIPUS": "Font de beure", "INVENTARI_CARRER": "PL GOYA", "INVENTARI_NUMERO_CARRER": "185", "INVENTARI_COORDENADA_X": 430069.253, "INVENTARI_COORDENADA_Y": 4581707.594 }, "geometry": { "type": "Point", "coordinates": [ 2.163629, 41.383856 ] } },
{ "type": "Feature", "properties": { "INVENTARI_CODI": "02-151", "INVENTARI_NOM": "Diagonal", "INVENTARI_TIPUS": "Font de beure", "INVENTARI_CARRER": "C MALLORCA", "INVENTARI_NUMERO_CARRER": "332", "INVENTARI_COORDENADA_X": 430505.656, "INVENTARI_COORDENADA_Y": 4583336.113 }, "geometry": { "type": "Point", "coordinates": [ 2.168661, 41.398561 ] } },
{ "type": "Feature", "properties": { "INVENTARI_CODI": "02-152", "INVENTARI_NOM": "Bruc", "INVENTARI_TIPUS": "Font de beure", "INVENTARI_CARRER": "C BRUC", "INVENTARI_NUMERO_CARRER": "645", "INVENTARI_COORDENADA_X": 430764.351, "INVENTARI_COORDENADA_Y": 4582652.99 }, "geometry": { "type": "Point", "coordinates": [ 2.171833, 41.392431 ] } },
{ "type": "Feature", "properties": { "INVENTARI_CODI": "02-153", "INVENTARI_NOM": "Ali Bei", "INVENTARI_TIPUS": "Font de beure", "INVENTARI_CARRER": "PG SANT JOAN", "INVENTARI_NUMERO_CARRER": "9", "INVENTARI_COORDENADA_X": 431320.992, "INVENTARI_COORDENADA_Y": 4582648.116 }, "geometry": { "type": "Point", "coordinates": [ 2.178492, 41.392435 ] } },
{ "type": "Feature", "properties": { "INVENTARI_CODI": "02-154", "INVENTARI_NOM": "València", "INVENTARI_TIPUS": "Font de beure", "INVENTARI_CARRER": "C SICILIA", "INVENTARI_NUMERO_CARRER": "276", "INVENTARI_COORDENADA_X": 431001.279, "INVENTARI_COORDENADA_Y": 4583583.86 }, "geometry": { "type": "Point", "coordinates": [ 2.174561, 41.400835 ] } },
{ "type": "Feature", "properties": { "INVENTARI_CODI": "02-155", "INVENTARI_NOM": "Provença (gasolinera)", "INVENTARI_TIPUS": "Font de beure", "INVENTARI_CARRER": "AV GAUDÍ", "INVENTARI_NUMERO_CARRER": "4-2", "INVENTARI_COORDENADA_X": 430995.072, "INVENTARI_COORDENADA_Y": 4584008.991 }, "geometry": { "type": "Point", "coordinates": [ 2.174438, 41.404664 ] } },
{ "type": "Feature", "properties": { "INVENTARI_CODI": "02-156", "INVENTARI_NOM": "Londres (costat Diagonal)", "INVENTARI_TIPUS": "Font de beure", "INVENTARI_CARRER": "C ARIBAU", "INVENTARI_NUMERO_CARRER": "181", "INVENTARI_COORDENADA_X": 429079.14, "INVENTARI_COORDENADA_Y": 4582877.664 }, "geometry": { "type": "Point", "coordinates": [ 2.151651, 41.394308 ] } },
{ "type": "Feature", "properties": { "INVENTARI_CODI": "02-157", "INVENTARI_NOM": "Parc", "INVENTARI_TIPUS": "Font de beure", "INVENTARI_CARRER": "C ENAMORATS", "INVENTARI_NUMERO_CARRER": "74", "INVENTARI_COORDENADA_X": 431612.453, "INVENTARI_COORDENADA_Y": 4584005.076 }, "geometry": { "type": "Point", "coordinates": [ 2.181824, 41.404681 ] } },
{ "type": "Feature", "properties": { "INVENTARI_CODI": "02-163", "INVENTARI_NOM": "costat Estació del Nord", "INVENTARI_TIPUS": "Font de beure", "INVENTARI_CARRER": "C SARDENYA", "INVENTARI_NUMERO_CARRER": "97", "INVENTARI_COORDENADA_X": 431831.134, "INVENTARI_COORDENADA_Y": 4582856.203 }, "geometry": { "type": "Point", "coordinates": [ 2.18457, 41.394352 ] } },
{ "type": "Feature", "properties": { "INVENTARI_CODI": "02-164", "INVENTARI_NOM": "Sicília", "INVENTARI_TIPUS": "Font de beure", "INVENTARI_CARRER": "C SICILIA", "INVENTARI_NUMERO_CARRER": "707", "INVENTARI_COORDENADA_X": 431332.446, "INVENTARI_COORDENADA_Y": 4583227.007 }, "geometry": { "type": "Point", "coordinates": [ 2.178563, 41.39765 ] } },
{ "type": "Feature", "properties": { "INVENTARI_CODI": "02-165", "INVENTARI_NOM": "Nàpols", "INVENTARI_TIPUS": "Font de beure", "INVENTARI_CARRER": "C DIPUTACIO", "INVENTARI_NUMERO_CARRER": "368", "INVENTARI_COORDENADA_X": 431154.566, "INVENTARI_COORDENADA_Y": 4583195.388 }, "geometry": { "type": "Point", "coordinates": [ 2.176439, 41.39735 ] } },
{ "type": "Feature", "properties": { "INVENTARI_CODI": "02-173", "INVENTARI_NOM": "Jardins de la indústria", "INVENTARI_TIPUS": "Font de beure", "INVENTARI_CARRER": "JARD INDUSTRIA", "INVENTARI_NUMERO_CARRER": "119-121", "INVENTARI_COORDENADA_X": 430728.774, "INVENTARI_COORDENADA_Y": 4584372.873 }, "geometry": { "type": "Point", "coordinates": [ 2.171211, 41.407918 ] } },
{ "type": "Feature", "properties": { "INVENTARI_CODI": "02-174", "INVENTARI_NOM": "Gran Via de les Corts Catalanes", "INVENTARI_TIPUS": "Font de beure", "INVENTARI_CARRER": "C COMTE D'URGELL", "INVENTARI_NUMERO_CARRER": "59-61", "INVENTARI_COORDENADA_X": 429607.561, "INVENTARI_COORDENADA_Y": 4581545.018 }, "geometry": { "type": "Point", "coordinates": [ 2.158126, 41.382352 ] } },
{ "type": "Feature", "properties": { "INVENTARI_CODI": "02-176", "INVENTARI_NOM": "Roger de Flor (entre Consell de Cent\/Diputació)", "INVENTARI_TIPUS": "Font de beure", "INVENTARI_CARRER": "JARD CARLIT", "INVENTARI_NUMERO_CARRER": "8", "INVENTARI_COORDENADA_X": 431054.816, "INVENTARI_COORDENADA_Y": 4583204.929 }, "geometry": { "type": "Point", "coordinates": [ 2.175245, 41.397427 ] } },
{ "type": "Feature", "properties": { "INVENTARI_CODI": "02-177", "INVENTARI_NOM": "Villarroel (entre Diputació i Gran Via)", "INVENTARI_TIPUS": "Font de beure", "INVENTARI_CARRER": "JARD CESAR MARTINELL", "INVENTARI_NUMERO_CARRER": "543-545", "INVENTARI_COORDENADA_X": 429727.982, "INVENTARI_COORDENADA_Y": 4581689.177 }, "geometry": { "type": "Point", "coordinates": [ 2.15955, 41.38366 ] } },
{ "type": "Feature", "properties": { "INVENTARI_CODI": "02-180", "INVENTARI_NOM": "Rda. Universitat", "INVENTARI_TIPUS": "Font de beure", "INVENTARI_CARRER": "PL UNIVERSITAT", "INVENTARI_NUMERO_CARRER": "9-10", "INVENTARI_COORDENADA_X": 430137.195, "INVENTARI_COORDENADA_Y": 4581936.284 }, "geometry": { "type": "Point", "coordinates": [ 2.164415, 41.385922 ] } },
{ "type": "Feature", "properties": { "INVENTARI_CODI": "02-182", "INVENTARI_NOM": "Aragó 455", "INVENTARI_TIPUS": "Font de beure", "INVENTARI_CARRER": "JARD MANUEL DE PEDROLO", "INVENTARI_NUMERO_CARRER": "459-463", "INVENTARI_COORDENADA_X": 431469.909, "INVENTARI_COORDENADA_Y": 4583587.577 }, "geometry": { "type": "Point", "coordinates": [ 2.180166, 41.400909 ] } },
{ "type": "Feature", "properties": { "INVENTARI_CODI": "02-183", "INVENTARI_NOM": "Diagonal \/ Lepant costat muntanya", "INVENTARI_TIPUS": "Font de beure", "INVENTARI_CARRER": "PL HISPANITAT", "INVENTARI_NUMERO_CARRER": "1", "INVENTARI_COORDENADA_X": 431367.17, "INVENTARI_COORDENADA_Y": 4583719.508 }, "geometry": { "type": "Point", "coordinates": [ 2.178922, 41.402089 ] } },
{ "type": "Feature", "properties": { "INVENTARI_CODI": "02-184", "INVENTARI_NOM": " ", "INVENTARI_TIPUS": "Font de beure", "INVENTARI_CARRER": "PG SANT JOAN", "INVENTARI_NUMERO_CARRER": "121", "INVENTARI_COORDENADA_X": 430451.417, "INVENTARI_COORDENADA_Y": 4583550.144 }, "geometry": { "type": "Point", "coordinates": [ 2.167987, 41.400484 ] } },
{ "type": "Feature", "properties": { "INVENTARI_CODI": "02-186", "INVENTARI_NOM": "Paris \/ Diagonal", "INVENTARI_TIPUS": "Font de beure", "INVENTARI_CARRER": "C ENRIC GRANADOS", "INVENTARI_NUMERO_CARRER": "120", "INVENTARI_COORDENADA_X": 429256.1, "INVENTARI_COORDENADA_Y": 4582880.552 }, "geometry": { "type": "Point", "coordinates": [ 2.153768, 41.394349 ] } },
{ "type": "Feature", "properties": { "INVENTARI_CODI": "02-188", "INVENTARI_NOM": "València", "INVENTARI_TIPUS": "Font de beure", "INVENTARI_CARRER": "C VALENCIA", "INVENTARI_NUMERO_CARRER": "374-372", "INVENTARI_COORDENADA_X": 430790.817, "INVENTARI_COORDENADA_Y": 4583427.161 }, "geometry": { "type": "Point", "coordinates": [ 2.172061, 41.399406 ] } },
{ "type": "Feature", "properties": { "INVENTARI_CODI": "02-189", "INVENTARI_NOM": "AV. Josep Tarradellas", "INVENTARI_TIPUS": "Font de beure", "INVENTARI_CARRER": "C LONDRES", "INVENTARI_NUMERO_CARRER": "8-2", "INVENTARI_COORDENADA_X": 428389.494, "INVENTARI_COORDENADA_Y": 4582192.078 }, "geometry": { "type": "Point", "coordinates": [ 2.143484, 41.388072 ] } },
{ "type": "Feature", "properties": { "INVENTARI_CODI": "02-190", "INVENTARI_NOM": "Mallorca \/ Provença", "INVENTARI_TIPUS": "Font de beure", "INVENTARI_CARRER": "PG SANT JOAN", "INVENTARI_NUMERO_CARRER": "103", "INVENTARI_COORDENADA_X": 430544.987, "INVENTARI_COORDENADA_Y": 4583455.503 }, "geometry": { "type": "Point", "coordinates": [ 2.169118, 41.39964 ] } },
{ "type": "Feature", "properties": { "INVENTARI_CODI": "02-191", "INVENTARI_NOM": "Pl Francesc Macià", "INVENTARI_TIPUS": "Font de beure", "INVENTARI_CARRER": "C JOSEP TARRADELLAS", "INVENTARI_NUMERO_CARRER": "147", "INVENTARI_COORDENADA_X": 428412.856, "INVENTARI_COORDENADA_Y": 4582524.328 }, "geometry": { "type": "Point", "coordinates": [ 2.143724, 41.391066 ] } },
{ "type": "Feature", "properties": { "INVENTARI_CODI": "02-194", "INVENTARI_NOM": "Cartagena, Rosselló, Provença", "INVENTARI_TIPUS": "Font de beure", "INVENTARI_CARRER": "JARD MONTSERRAT ROIG", "INVENTARI_NUMERO_CARRER": "496-484", "INVENTARI_COORDENADA_X": 431370.916, "INVENTARI_COORDENADA_Y": 4584457.919 }, "geometry": { "type": "Point", "coordinates": [ 2.178883, 41.408739 ] } },
{ "type": "Feature", "properties": { "INVENTARI_CODI": "02-195", "INVENTARI_NOM": "Roger de Llúria (entre Consell de Cent i Diputació)", "INVENTARI_TIPUS": "Font de beure", "INVENTARI_CARRER": "JARD TORRE DE LES AIGÜES", "INVENTARI_NUMERO_CARRER": "352", "INVENTARI_COORDENADA_X": 430584.432, "INVENTARI_COORDENADA_Y": 4582783.042 }, "geometry": { "type": "Point", "coordinates": [ 2.169667, 41.393587 ] } },
{ "type": "Feature", "properties": { "INVENTARI_CODI": "02-198", "INVENTARI_NOM": " ", "INVENTARI_TIPUS": "Font de beure", "INVENTARI_CARRER": "AV MISTRAL", "INVENTARI_NUMERO_CARRER": "18", "INVENTARI_COORDENADA_X": 429593.746, "INVENTARI_COORDENADA_Y": 4580962.987 }, "geometry": { "type": "Point", "coordinates": [ 2.158029, 41.377108 ] } },
{ "type": "Feature", "properties": { "INVENTARI_CODI": "02-199", "INVENTARI_NOM": " ", "INVENTARI_TIPUS": "Font de beure", "INVENTARI_CARRER": "AV MISTRAL", "INVENTARI_NUMERO_CARRER": "34-28", "INVENTARI_COORDENADA_X": 429510.526, "INVENTARI_COORDENADA_Y": 4580930.607 }, "geometry": { "type": "Point", "coordinates": [ 2.157038, 41.376809 ] } },
{ "type": "Feature", "properties": { "INVENTARI_CODI": "02-200", "INVENTARI_NOM": " ", "INVENTARI_TIPUS": "Font de beure", "INVENTARI_CARRER": "AV MISTRAL", "INVENTARI_NUMERO_CARRER": "39-43", "INVENTARI_COORDENADA_X": 429459.826, "INVENTARI_COORDENADA_Y": 4580905.308 }, "geometry": { "type": "Point", "coordinates": [ 2.156434, 41.376577 ] } },
{ "type": "Feature", "properties": { "INVENTARI_CODI": "02-201", "INVENTARI_NOM": " ", "INVENTARI_TIPUS": "Font de beure", "INVENTARI_CARRER": "AV MISTRAL", "INVENTARI_NUMERO_CARRER": "48", "INVENTARI_COORDENADA_X": 429321.835, "INVENTARI_COORDENADA_Y": 4580856.789 }, "geometry": { "type": "Point", "coordinates": [ 2.15479, 41.376128 ] } },
{ "type": "Feature", "properties": { "INVENTARI_CODI": "02-202", "INVENTARI_NOM": " ", "INVENTARI_TIPUS": "Font de beure", "INVENTARI_CARRER": "AV MISTRAL", "INVENTARI_NUMERO_CARRER": "71", "INVENTARI_COORDENADA_X": 429240.085, "INVENTARI_COORDENADA_Y": 4580822.989 }, "geometry": { "type": "Point", "coordinates": [ 2.153816, 41.375816 ] } },
{ "type": "Feature", "properties": { "INVENTARI_CODI": "02-203", "INVENTARI_NOM": " ", "INVENTARI_TIPUS": "Font de beure", "INVENTARI_CARRER": "AV MISTRAL", "INVENTARI_NUMERO_CARRER": "66", "INVENTARI_COORDENADA_X": 429187.205, "INVENTARI_COORDENADA_Y": 4580805.34 }, "geometry": { "type": "Point", "coordinates": [ 2.153186, 41.375653 ] } },
{ "type": "Feature", "properties": { "INVENTARI_CODI": "02-204", "INVENTARI_NOM": "Marina", "INVENTARI_TIPUS": "Font de beure", "INVENTARI_CARRER": "C MARINA", "INVENTARI_NUMERO_CARRER": "778", "INVENTARI_COORDENADA_X": 431555.388, "INVENTARI_COORDENADA_Y": 4583351.746 }, "geometry": { "type": "Point", "coordinates": [ 2.181215, 41.398792 ] } },
{ "type": "Feature", "properties": { "INVENTARI_CODI": "02-205", "INVENTARI_NOM": "Rocafort", "INVENTARI_TIPUS": "Font de beure", "INVENTARI_CARRER": "AV ROMA", "INVENTARI_NUMERO_CARRER": "55.E", "INVENTARI_COORDENADA_X": 428848.961, "INVENTARI_COORDENADA_Y": 4581648.823 }, "geometry": { "type": "Point", "coordinates": [ 2.149043, 41.38322 ] } },
{ "type": "Feature", "properties": { "INVENTARI_CODI": "02-206", "INVENTARI_NOM": "València (llançà)", "INVENTARI_TIPUS": "Font de beure", "INVENTARI_CARRER": "JARD SAFO", "INVENTARI_NUMERO_CARRER": "13-15", "INVENTARI_COORDENADA_X": 428609.738, "INVENTARI_COORDENADA_Y": 4581353.545 }, "geometry": { "type": "Point", "coordinates": [ 2.146217, 41.380539 ] } },
{ "type": "Feature", "properties": { "INVENTARI_CODI": "02-207", "INVENTARI_NOM": "Paral·lel amb Parlament", "INVENTARI_TIPUS": "Font de beure", "INVENTARI_CARRER": "JARD TRES TOMBS", "INVENTARI_NUMERO_CARRER": "31", "INVENTARI_COORDENADA_X": 429836.646, "INVENTARI_COORDENADA_Y": 4580859.215 }, "geometry": { "type": "Point", "coordinates": [ 2.160945, 41.376195 ] } },
{ "type": "Feature", "properties": { "INVENTARI_CODI": "02-209", "INVENTARI_NOM": "Aragó \/ València \/ Padilla", "INVENTARI_TIPUS": "Font de beure", "INVENTARI_CARRER": "JARD FLORA TRISTAN", "INVENTARI_NUMERO_CARRER": "485", "INVENTARI_COORDENADA_X": 431470.312, "INVENTARI_COORDENADA_Y": 4583956.957 }, "geometry": { "type": "Point", "coordinates": [ 2.180129, 41.404236 ] } },
{ "type": "Feature", "properties": { "INVENTARI_CODI": "02-210", "INVENTARI_NOM": "Gran Via \/ Bailen \/ Girona", "INVENTARI_TIPUS": "Font de beure", "INVENTARI_CARRER": "JARD JAUME PERICH", "INVENTARI_NUMERO_CARRER": "659", "INVENTARI_COORDENADA_X": 430882.483, "INVENTARI_COORDENADA_Y": 4582816.55 }, "geometry": { "type": "Point", "coordinates": [ 2.173228, 41.393914 ] } },
{ "type": "Feature", "properties": { "INVENTARI_CODI": "02-211", "INVENTARI_NOM": "Gran Via \/ Bailen \/ Girona", "INVENTARI_TIPUS": "Font de beure", "INVENTARI_CARRER": "JARD JAUME PERICH", "INVENTARI_NUMERO_CARRER": "659", "INVENTARI_COORDENADA_X": 430881.063, "INVENTARI_COORDENADA_Y": 4582815.15 }, "geometry": { "type": "Point", "coordinates": [ 2.173211, 41.393902 ] } },
{ "type": "Feature", "properties": { "INVENTARI_CODI": "02-212", "INVENTARI_NOM": "Ausiàs Marc", "INVENTARI_TIPUS": "Font de beure", "INVENTARI_CARRER": "PL FORT PIENC", "INVENTARI_NUMERO_CARRER": "3", "INVENTARI_COORDENADA_X": 431637.325, "INVENTARI_COORDENADA_Y": 4583024.324 }, "geometry": { "type": "Point", "coordinates": [ 2.182233, 41.39585 ] } },
{ "type": "Feature", "properties": { "INVENTARI_CODI": "02-213", "INVENTARI_NOM": "Costat Corte Inglés", "INVENTARI_TIPUS": "Font de beure", "INVENTARI_CARRER": "PL CATALUNYA", "INVENTARI_NUMERO_CARRER": "12-13", "INVENTARI_COORDENADA_X": 430619.687, "INVENTARI_COORDENADA_Y": 4582092.331 }, "geometry": { "type": "Point", "coordinates": [ 2.170167, 41.387369 ] } },
{ "type": "Feature", "properties": { "INVENTARI_CODI": "02-214", "INVENTARI_NOM": "Entença", "INVENTARI_TIPUS": "Font de beure", "INVENTARI_CARRER": "C JOSEP TARRADELLAS", "INVENTARI_NUMERO_CARRER": "60", "INVENTARI_COORDENADA_X": 428314.171, "INVENTARI_COORDENADA_Y": 4581887.738 }, "geometry": { "type": "Point", "coordinates": [ 2.142619, 41.385324 ] } },
{ "type": "Feature", "properties": { "INVENTARI_CODI": "02-215", "INVENTARI_NOM": "Consell de Cent \/ Diputació \/ Viladomat", "INVENTARI_TIPUS": "Font de beure", "INVENTARI_CARRER": "JARD PAULA MONTAL", "INVENTARI_NUMERO_CARRER": "142.I", "INVENTARI_COORDENADA_X": 429270.88, "INVENTARI_COORDENADA_Y": 4581454.62 }, "geometry": { "type": "Point", "coordinates": [ 2.154111, 41.381508 ] } },
{ "type": "Feature", "properties": { "INVENTARI_CODI": "02-216", "INVENTARI_NOM": "Roger de Flor \/ Ali Bei", "INVENTARI_TIPUS": "Font de beure", "INVENTARI_CARRER": "CTRA ANTIGA D'HORTA", "INVENTARI_NUMERO_CARRER": "5-7", "INVENTARI_COORDENADA_X": 431473.233, "INVENTARI_COORDENADA_Y": 4582802.645 }, "geometry": { "type": "Point", "coordinates": [ 2.180295, 41.39384 ] } },
{ "type": "Feature", "properties": { "INVENTARI_CODI": "02-217", "INVENTARI_NOM": "Sardenya \/ Marina \/ Ali Bei", "INVENTARI_TIPUS": "Font de beure", "INVENTARI_CARRER": "JARD LINA ÓDENA", "INVENTARI_NUMERO_CARRER": "131.B-133", "INVENTARI_COORDENADA_X": 431741.186, "INVENTARI_COORDENADA_Y": 4583095.864 }, "geometry": { "type": "Point", "coordinates": [ 2.183467, 41.396503 ] } },
{ "type": "Feature", "properties": { "INVENTARI_CODI": "02-218", "INVENTARI_NOM": " ", "INVENTARI_TIPUS": "Font de beure", "INVENTARI_CARRER": "C ENAMORATS", "INVENTARI_NUMERO_CARRER": "91-93", "INVENTARI_COORDENADA_X": 431703.554, "INVENTARI_COORDENADA_Y": 4584157.516 }, "geometry": { "type": "Point", "coordinates": [ 2.182897, 41.406062 ] } },
{ "type": "Feature", "properties": { "INVENTARI_CODI": "02-219", "INVENTARI_NOM": "entre pont Sardenya i Marina", "INVENTARI_TIPUS": "Font de beure", "INVENTARI_CARRER": "C SARDENYA", "INVENTARI_NUMERO_CARRER": "69-75", "INVENTARI_COORDENADA_X": 431893.695, "INVENTARI_COORDENADA_Y": 4582902.972 }, "geometry": { "type": "Point", "coordinates": [ 2.185313, 41.394779 ] } },
{ "type": "Feature", "properties": { "INVENTARI_CODI": "02-220", "INVENTARI_NOM": "Rosselló \/ Aribau", "INVENTARI_TIPUS": "Font de beure", "INVENTARI_CARRER": "PLTA JOAN BROSSA", "INVENTARI_NUMERO_CARRER": "236", "INVENTARI_COORDENADA_X": 429358.639, "INVENTARI_COORDENADA_Y": 4582669.921 }, "geometry": { "type": "Point", "coordinates": [ 2.155019, 41.392461 ] } },
{ "type": "Feature", "properties": { "INVENTARI_CODI": "02-221", "INVENTARI_NOM": "Gran Via \/ Entença \/ Rocafort", "INVENTARI_TIPUS": "Font de beure", "INVENTARI_CARRER": "JARD SEBASTIA GASCH", "INVENTARI_NUMERO_CARRER": "48", "INVENTARI_COORDENADA_X": 429154.007, "INVENTARI_COORDENADA_Y": 4581167.75 }, "geometry": { "type": "Point", "coordinates": [ 2.152747, 41.378914 ] } },
{ "type": "Feature", "properties": { "INVENTARI_CODI": "02-222", "INVENTARI_NOM": "Aragó 305, Bruc", "INVENTARI_TIPUS": "Font de beure", "INVENTARI_CARRER": "JARD RECTOR OLIVERAS", "INVENTARI_NUMERO_CARRER": "318", "INVENTARI_COORDENADA_X": 430394.583, "INVENTARI_COORDENADA_Y": 4582955.294 }, "geometry": { "type": "Point", "coordinates": [ 2.167376, 41.395122 ] } },
{ "type": "Feature", "properties": { "INVENTARI_CODI": "02-223", "INVENTARI_NOM": "Provença \/ Viladomat", "INVENTARI_TIPUS": "Font de beure", "INVENTARI_CARRER": "JARD MARIA MERCÈ MARÇAL", "INVENTARI_NUMERO_CARRER": "241", "INVENTARI_COORDENADA_X": 428906.103, "INVENTARI_COORDENADA_Y": 4582012.664 }, "geometry": { "type": "Point", "coordinates": [ 2.149683, 41.386502 ] } },
{ "type": "Feature", "properties": { "INVENTARI_CODI": "02-224", "INVENTARI_NOM": "Passeig central", "INVENTARI_TIPUS": "Font de beure", "INVENTARI_CARRER": "AV ROMA", "INVENTARI_NUMERO_CARRER": "137", "INVENTARI_COORDENADA_X": 429437.674, "INVENTARI_COORDENADA_Y": 4581960.909 }, "geometry": { "type": "Point", "coordinates": [ 2.156046, 41.386082 ] } },